latitude,longitude,GEOID,County_State
32.5349201866,-86.642749235,01001,"Autauga County, Alabama"
30.6609696648,-87.7498400784,01003,"Baldwin County, Alabama"
31.8696032448,-85.3931969755,01005,"Barbour County, Alabama"
32.9986442965,-87.1264391014,01007,"Bibb County, Alabama"
33.9808673856,-86.5673709608,01009,"Blount County, Alabama"
32.1005542205,-85.7156972254,01011,"Bullock County, Alabama"
31.7524339429,-86.6802892154,01013,"Butler County, Alabama"
33.7714324565,-85.8260308543,01015,"Calhoun County, Alabama"
32.9143722298,-85.3920429513,01017,"Chambers County, Alabama"
34.1759559677,-85.6037937156,01019,"Cherokee County, Alabama"
32.847853212,-86.718813672,01021,"Chilton County, Alabama"
32.0196107831,-88.2632012743,01023,"Choctaw County, Alabama"
31.6766595802,-87.8308098507,01025,"Clarke County, Alabama"
33.2690858673,-85.8605470841,01027,"Clay County, Alabama"
33.6745577167,-85.5187680028,01029,"Cleburne County, Alabama"
31.4026271796,-85.9882069262,01031,"Coffee County, Alabama"
34.7004337984,-87.8049852867,01033,"Colbert County, Alabama"
31.4292715445,-86.9936742092,01035,"Conecuh County, Alabama"
32.9362268304,-86.2476592648,01037,"Coosa County, Alabama"
31.2484923988,-86.4512425439,01039,"Covington County, Alabama"
31.7315001844,-86.3135388959,01041,"Crenshaw County, Alabama"
34.1319410705,-86.8676194614,01043,"Cullman County, Alabama"
31.4318270699,-85.6110368183,01045,"Dale County, Alabama"
32.325973709,-87.1064763258,01047,"Dallas County, Alabama"
34.4597729557,-85.8041426436,01049,"DeKalb County, Alabama"
32.5966480504,-86.1491465307,01051,"Elmore County, Alabama"
31.1261225461,-87.1616198682,01053,"Escambia County, Alabama"
34.0452544,-86.034762324,01055,"Etowah County, Alabama"
33.7212061505,-87.7388619701,01057,"Fayette County, Alabama"
34.4416706415,-87.8438119782,01059,"Franklin County, Alabama"
31.095016693,-85.8389848955,01061,"Geneva County, Alabama"
32.8531388427,-87.9522309156,01063,"Greene County, Alabama"
32.7626642246,-87.6291176816,01065,"Hale County, Alabama"
31.5146944202,-85.2414063367,01067,"Henry County, Alabama"
31.1531879718,-85.3025273835,01069,"Houston County, Alabama"
34.7794159964,-85.9993005443,01071,"Jackson County, Alabama"
33.5543385118,-86.8963982424,01073,"Jefferson County, Alabama"
33.7792058021,-88.0968988585,01075,"Lamar County, Alabama"
34.901372384,-87.6539980067,01077,"Lauderdale County, Alabama"
34.5216520166,-87.311044513,01079,"Lawrence County, Alabama"
32.6011364841,-85.355562704,01081,"Lee County, Alabama"
34.8100783219,-86.9813747654,01083,"Limestone County, Alabama"
32.1547500095,-86.6501076967,01085,"Lowndes County, Alabama"
32.3859736952,-85.6926686622,01087,"Macon County, Alabama"
34.7630897031,-86.5502065185,01089,"Madison County, Alabama"
32.2476134122,-87.7895192944,01091,"Marengo County, Alabama"
34.1365496957,-87.8871383639,01093,"Marion County, Alabama"
34.3669621021,-86.306636969,01095,"Marshall County, Alabama"
30.6851516211,-88.1975233535,01097,"Mobile County, Alabama"
31.5708340246,-87.3654375115,01099,"Monroe County, Alabama"
32.2202579876,-86.2076142923,01101,"Montgomery County, Alabama"
34.453472028,-86.8529215684,01103,"Morgan County, Alabama"
32.6384656558,-87.2944007854,01105,"Perry County, Alabama"
33.2808768859,-88.0886925942,01107,"Pickens County, Alabama"
31.8027084904,-85.9409081483,01109,"Pike County, Alabama"
33.2937873448,-85.4590701568,01111,"Randolph County, Alabama"
32.2883800156,-85.1849624464,01113,"Russell County, Alabama"
33.7157303222,-86.3145956812,01115,"St. Clair County, Alabama"
33.2642770248,-86.6606484037,01117,"Shelby County, Alabama"
32.5910175308,-88.1987896089,01119,"Sumter County, Alabama"
33.3800616097,-86.1659036872,01121,"Talladega County, Alabama"
32.8624049426,-85.7975022448,01123,"Tallapoosa County, Alabama"
33.2895498464,-87.525029952,01125,"Tuscaloosa County, Alabama"
33.8033347429,-87.2973573971,01127,"Walker County, Alabama"
31.4076037932,-88.2078768076,01129,"Washington County, Alabama"
31.9892401922,-87.3082017869,01131,"Wilcox County, Alabama"
34.1492251125,-87.3736834128,01133,"Winston County, Alabama"
55.2245210175,-161.947228747,02013,"Aleutians East Borough, Alaska"
52.680220089,-92.4880742871,02016,"Aleutians West Census Area, Alaska"
61.1482627033,-149.188568553,02020,"Anchorage Municipality, Alaska"
60.8490903436,-160.195267975,02050,"Bethel Census Area, Alaska"
58.7332560682,-156.981015248,02060,"Bristol Bay Borough, Alaska"
63.6716419513,-150.011714676,02068,"Denali Borough, Alaska"
59.7139951133,-158.348270189,02070,"Dillingham Census Area, Alaska"
64.8077661564,-146.565422856,02090,"Fairbanks North Star Borough, Alaska"
59.0758951471,-135.470092205,02100,"Haines Borough, Alaska"
58.2091446546,-135.559082719,02105,"Hoonah-Angoon Census Area, Alaska"
58.4439351761,-134.230339191,02110,"Juneau City and Borough, Alaska"
60.1194076421,-151.698058085,02122,"Kenai Peninsula Borough, Alaska"
55.4885148595,-131.030510343,02130,"Ketchikan Gateway Borough, Alaska"
57.6602871351,-153.749160002,02150,"Kodiak Island Borough, Alaska"
62.160012711,-163.525464784,02158,"Kusilvak Census Area, Alaska"
58.2787538674,-156.544796848,02164,"Lake and Peninsula Borough, Alaska"
62.3046703274,-149.580200458,02170,"Matanuska-Susitna Borough, Alaska"
64.8354505226,-164.244322616,02180,"Nome Census Area, Alaska"
69.3634118461,-153.510605515,02185,"North Slope Borough, Alaska"
67.0081724432,-160.006978537,02188,"Northwest Arctic Borough, Alaska"
57.1140130761,-133.002459292,02195,"Petersburg Borough, Alaska"
55.7271705274,-133.193025891,02198,"Prince of Wales-Hyder Census Area, Alaska"
57.1797757863,-135.304965119,02220,"Sitka City and Borough, Alaska"
59.5599920529,-135.336672633,02230,"Skagway Municipality, Alaska"
63.8762960012,-143.211992263,02240,"Southeast Fairbanks Census Area, Alaska"
61.41700408,-144.7602293,02261,"Valdez-Cordova Census Area"
56.2936264549,-132.12922494,02275,"Wrangell City and Borough, Alaska"
59.8632076093,-140.381018617,02282,"Yakutat City and Borough, Alaska"
65.5086521548,-151.389616025,02290,"Yukon-Koyukuk Census Area, Alaska"
35.3955080611,-109.488828707,04001,"Apache County, Arizona"
31.8796370864,-109.751263137,04003,"Cochise County, Arizona"
35.8386956734,-111.770512718,04005,"Coconino County, Arizona"
33.7997498678,-110.811737097,04007,"Gila County, Arizona"
32.9326627045,-109.887451628,04009,"Graham County, Arizona"
33.2154016682,-109.240355413,04011,"Greenlee County, Arizona"
33.7293704444,-113.981607439,04012,"La Paz County, Arizona"
33.3489778227,-112.491486812,04013,"Maricopa County, Arizona"
35.7040584995,-113.757910618,04015,"Mohave County, Arizona"
35.3995733714,-110.321396004,04017,"Navajo County, Arizona"
32.097399026,-111.789863499,04019,"Pima County, Arizona"
32.9043665122,-111.344739896,04021,"Pinal County, Arizona"
31.525961257,-110.846516905,04023,"Santa Cruz County, Arizona"
34.5998564246,-112.553944833,04025,"Yavapai County, Arizona"
32.7696188927,-113.905618757,04027,"Yuma County, Arizona"
34.2908080523,-91.3749047506,05001,"Arkansas County, Arkansas"
33.1912219797,-91.7684475565,05003,"Ashley County, Arkansas"
36.2871782318,-92.3369721117,05005,"Baxter County, Arkansas"
36.3387382969,-94.2561015344,05007,"Benton County, Arkansas"
36.3085986469,-93.0915633723,05009,"Boone County, Arkansas"
33.4664224376,-92.1624016443,05011,"Bradley County, Arkansas"
33.5580341574,-92.5030441645,05013,"Calhoun County, Arkansas"
36.3410829938,-93.5381811083,05015,"Carroll County, Arkansas"
33.2672553197,-91.2939728213,05017,"Chicot County, Arkansas"
34.0509558643,-93.1763674899,05019,"Clark County, Arkansas"
36.3683942057,-90.4173835629,05021,"Clay County, Arkansas"
35.5381064958,-92.0267180322,05023,"Cleburne County, Arkansas"
33.8983618624,-92.1851454385,05025,"Cleveland County, Arkansas"
33.2142871374,-93.227308885,05027,"Columbia County, Arkansas"
35.2622207059,-92.7013072101,05029,"Conway County, Arkansas"
35.8307887047,-90.632841255,05031,"Craighead County, Arkansas"
35.5884840734,-94.2429568096,05033,"Crawford County, Arkansas"
35.2079371348,-90.3088719897,05035,"Crittenden County, Arkansas"
35.2957261162,-90.771226853,05037,"Cross County, Arkansas"
33.9698311293,-92.6544402046,05039,"Dallas County, Arkansas"
33.8333331807,-91.2539442656,05041,"Desha County, Arkansas"
33.5894557062,-91.720023319,05043,"Drew County, Arkansas"
35.1469781265,-92.332041157,05045,"Faulkner County, Arkansas"
35.5123637272,-93.8906143781,05047,"Franklin County, Arkansas"
36.3816695474,-91.8182352994,05049,"Fulton County, Arkansas"
34.5767017575,-93.150399652,05051,"Garland County, Arkansas"
34.2900177408,-92.4235830486,05053,"Grant County, Arkansas"
36.117697723,-90.5590717273,05055,"Greene County, Arkansas"
33.7353045888,-93.6684431539,05057,"Hempstead County, Arkansas"
34.3176480082,-92.9460691759,05059,"Hot Spring County, Arkansas"
34.0887429323,-93.9934933573,05061,"Howard County, Arkansas"
35.7415534129,-91.5697116529,05063,"Independence County, Arkansas"
36.0948699143,-91.9134102959,05065,"Izard County, Arkansas"
35.5992402368,-91.2145376687,05067,"Jackson County, Arkansas"
34.2687844437,-91.9315146225,05069,"Jefferson County, Arkansas"
35.5701227411,-93.4598811569,05071,"Johnson County, Arkansas"
33.2409810885,-93.6070389924,05073,"Lafayette County, Arkansas"
36.0412452465,-91.1070801351,05075,"Lawrence County, Arkansas"
34.7806229431,-90.7820673213,05077,"Lee County, Arkansas"
33.9574736745,-91.7333211971,05079,"Lincoln County, Arkansas"
33.7005398883,-94.2343408793,05081,"Little River County, Arkansas"
35.2153385104,-93.7162169926,05083,"Logan County, Arkansas"
34.7542368128,-91.8887898981,05085,"Lonoke County, Arkansas"
36.0109653302,-93.7245618667,05087,"Madison County, Arkansas"
36.2683474959,-92.6842202167,05089,"Marion County, Arkansas"
33.3121471783,-93.8915614277,05091,"Miller County, Arkansas"
35.7639016515,-90.0541660119,05093,"Mississippi County, Arkansas"
34.6778362856,-91.2038921969,05095,"Monroe County, Arkansas"
34.5387970384,-93.6595529416,05097,"Montgomery County, Arkansas"
33.6639660687,-93.3071433023,05099,"Nevada County, Arkansas"
35.9199743544,-93.2178669264,05101,"Newton County, Arkansas"
33.5933550412,-92.8819343531,05103,"Ouachita County, Arkansas"
34.9473737476,-92.9314699116,05105,"Perry County, Arkansas"
34.42829125,-90.8480221032,05107,"Phillips County, Arkansas"
34.1634980417,-93.6563416658,05109,"Pike County, Arkansas"
35.5740321244,-90.6629400421,05111,"Poinsett County, Arkansas"
34.4858849277,-94.2280604373,05113,"Polk County, Arkansas"
35.447636026,-93.0341542751,05115,"Pope County, Arkansas"
34.8297827954,-91.5527759528,05117,"Prairie County, Arkansas"
34.7699753373,-92.3119257562,05119,"Pulaski County, Arkansas"
36.341483312,-91.0277165202,05121,"Randolph County, Arkansas"
35.0219948491,-90.7478115543,05123,"St. Francis County, Arkansas"
34.6466183905,-92.676575561,05125,"Saline County, Arkansas"
34.8607684689,-94.0632792993,05127,"Scott County, Arkansas"
35.9109060184,-92.6995245166,05129,"Searcy County, Arkansas"
35.1993218755,-94.2741206259,05131,"Sebastian County, Arkansas"
33.9972551652,-94.2412727038,05133,"Sevier County, Arkansas"
36.1611646374,-91.4798585278,05135,"Sharp County, Arkansas"
35.8598655553,-92.1567129536,05137,"Stone County, Arkansas"
33.171357538,-92.5972913761,05139,"Union County, Arkansas"
35.580655379,-92.5156877897,05141,"Van Buren County, Arkansas"
35.9790563044,-94.2155848036,05143,"Washington County, Arkansas"
35.2562753346,-91.7455472673,05145,"White County, Arkansas"
35.1863303424,-91.2430822004,05147,"Woodruff County, Arkansas"
35.0025779761,-93.4112514229,05149,"Yell County, Arkansas"
37.6504930265,-121.917998966,06001,"Alameda County, California"
38.5972506332,-119.82065303,06003,"Alpine County, California"
38.446389504,-120.651115621,06005,"Amador County, California"
39.6669293633,-121.600671735,06007,"Butte County, California"
38.204606803,-120.554132098,06009,"Calaveras County, California"
39.177573113,-122.237029616,06011,"Colusa County, California"
37.9233794475,-121.951073113,06013,"Contra Costa County, California"
41.744942366,-123.957801356,06015,"Del Norte County, California"
38.7787375794,-120.524649929,06017,"El Dorado County, California"
36.7581801263,-119.649322632,06019,"Fresno County, California"
39.5984047698,-122.392206808,06021,"Glenn County, California"
40.7050090829,-123.915819446,06023,"Humboldt County, California"
33.0395904342,-115.365336962,06025,"Imperial County, California"
36.5111268089,-117.410789686,06027,"Inyo County, California"
35.3428473738,-118.729900424,06029,"Kern County, California"
36.0753604529,-119.815502709,06031,"Kings County, California"
39.0996453445,-122.753183909,06033,"Lake County, California"
40.6735903894,-120.594332834,06035,"Lassen County, California"
34.1979978627,-118.26101385,06037,"Los Angeles County, California"
37.2180440575,-119.762644507,06039,"Madera County, California"
38.05518334,-122.748858563,06041,"Marin County, California"
37.5815223099,-119.905517029,06043,"Mariposa County, California"
39.4336238198,-123.431553907,06045,"Mendocino County, California"
37.191870471,-120.717688,06047,"Merced County, California"
41.5898335739,-120.725028959,06049,"Modoc County, California"
37.938990343,-118.886709262,06051,"Mono County, California"
36.2397743956,-121.308901554,06053,"Monterey County, California"
38.5064964441,-122.330538465,06055,"Napa County, California"
39.301369579,-120.768752113,06057,"Nevada County, California"
33.6769134328,-117.776142822,06059,"Orange County, California"
39.0634313879,-120.717645936,06061,"Placer County, California"
40.0046824769,-120.838597596,06063,"Plumas County, California"
33.7436800499,-115.993845895,06065,"Riverside County, California"
38.4493208547,-121.344253814,06067,"Sacramento County, California"
36.6057058971,-121.074995529,06069,"San Benito County, California"
34.8414378315,-116.17846142,06071,"San Bernardino County, California"
33.028186394,-116.770204664,06073,"San Diego County, California"
37.7597150131,-122.693975573,06075,"San Francisco County, California"
37.9347459676,-121.271403235,06077,"San Joaquin County, California"
35.38741848,-120.452196945,06079,"San Luis Obispo County, California"
37.4362097341,-122.355663195,06081,"San Mateo County, California"
34.5383440862,-120.030786183,06083,"Santa Barbara County, California"
37.2324840341,-121.696278854,06085,"Santa Clara County, California"
37.0216059108,-122.009787403,06087,"Santa Cruz County, California"
40.7637666014,-122.040521531,06089,"Shasta County, California"
39.5804001016,-120.515996378,06091,"Sierra County, California"
41.5926866339,-122.540367763,06093,"Siskiyou County, California"
38.2669127871,-121.940024418,06095,"Solano County, California"
38.525292575,-122.922544658,06097,"Sonoma County, California"
37.5591374435,-120.997682895,06099,"Stanislaus County, California"
39.0345595213,-121.694849665,06101,"Sutter County, California"
40.1257361849,-122.233884853,06103,"Tehama County, California"
40.6506935615,-123.112627727,06105,"Trinity County, California"
36.220156659,-118.80047248,06107,"Tulare County, California"
38.0276014047,-119.95475358,06109,"Tuolumne County, California"
34.3575285169,-119.126027193,06111,"Ventura County, California"
38.6866603948,-121.90161702,06113,"Yolo County, California"
39.2690076722,-121.351262732,06115,"Yuba County, California"
39.8736400746,-104.337801716,08001,"Adams County, Colorado"
37.5728931402,-105.788288197,08003,"Alamosa County, Colorado"
39.6497752303,-104.339234024,08005,"Arapahoe County, Colorado"
37.1936094363,-107.048288324,08007,"Archuleta County, Colorado"
37.3191787991,-102.560476646,08009,"Baca County, Colorado"
37.9550855775,-103.071704571,08011,"Bent County, Colorado"
40.0924597674,-105.35770567,08013,"Boulder County, Colorado"
39.9541358004,-105.052664798,08014,"Broomfield County, Colorado"
38.7469030854,-106.194066665,08015,"Chaffee County, Colorado"
38.8279397207,-102.603395824,08017,"Cheyenne County, Colorado"
39.6890538531,-105.64436349,08019,"Clear Creek County, Colorado"
37.2006875346,-106.191627951,08021,"Conejos County, Colorado"
37.2779522735,-105.428249706,08023,"Costilla County, Colorado"
38.326661062,-103.784825661,08025,"Crowley County, Colorado"
38.1086779015,-105.367471778,08027,"Custer County, Colorado"
38.8613737904,-107.862876811,08029,"Delta County, Colorado"
39.7621646287,-104.875801423,08031,"Denver County, Colorado"
37.7516108062,-108.517265273,08033,"Dolores County, Colorado"
39.3297243092,-104.929559461,08035,"Douglas County, Colorado"
39.6278256159,-106.695299259,08037,"Eagle County, Colorado"
39.2865595002,-104.13588983,08039,"Elbert County, Colorado"
38.8320890915,-104.525584561,08041,"El Paso County, Colorado"
38.4729724659,-105.439657054,08043,"Fremont County, Colorado"
39.599307179,-107.903956154,08045,"Garfield County, Colorado"
39.8575436237,-105.522621196,08047,"Gilpin County, Colorado"
40.102614944,-106.118358313,08049,"Grand County, Colorado"
38.6667977063,-107.031700114,08051,"Gunnison County, Colorado"
37.8213415755,-107.300311758,08053,"Hinsdale County, Colorado"
37.6846796381,-104.960584534,08055,"Huerfano County, Colorado"
40.6664326842,-106.342794688,08057,"Jackson County, Colorado"
39.5864284092,-105.250466793,08059,"Jefferson County, Colorado"
38.4326851414,-102.740340455,08061,"Kiowa County, Colorado"
39.3054413227,-102.602887422,08063,"Kit Carson County, Colorado"
39.2023794705,-106.344837734,08065,"Lake County, Colorado"
37.286581954,-107.843270687,08067,"La Plata County, Colorado"
40.6664172232,-105.461144451,08069,"Larimer County, Colorado"
37.3158384919,-104.03869984,08071,"Las Animas County, Colorado"
38.9880685587,-103.513965366,08073,"Lincoln County, Colorado"
40.7246687188,-103.110095731,08075,"Logan County, Colorado"
39.0182904955,-108.466440182,08077,"Mesa County, Colorado"
37.6689956825,-106.924094646,08079,"Mineral County, Colorado"
40.61842222,-108.207290604,08081,"Moffat County, Colorado"
37.3384339705,-108.596669828,08083,"Montezuma County, Colorado"
38.4021560325,-108.269451135,08085,"Montrose County, Colorado"
40.2627443761,-103.809822237,08087,"Morgan County, Colorado"
37.9027017254,-103.716445685,08089,"Otero County, Colorado"
38.1554971802,-107.76931682,08091,"Ouray County, Colorado"
39.1193028617,-105.717174716,08093,"Park County, Colorado"
40.5938843197,-102.357579601,08095,"Phillips County, Colorado"
39.2171057452,-106.916577749,08097,"Pitkin County, Colorado"
37.9551831858,-102.393348977,08099,"Prowers County, Colorado"
38.1734202345,-104.512845555,08101,"Pueblo County, Colorado"
39.9798357499,-108.217225788,08103,"Rio Blanco County, Colorado"
37.5825228172,-106.38321036,08105,"Rio Grande County, Colorado"
40.4850679408,-106.991193187,08107,"Routt County, Colorado"
38.0805527548,-106.281555562,08109,"Saguache County, Colorado"
37.764043073,-107.676147275,08111,"San Juan County, Colorado"
38.0037403985,-108.405922131,08113,"San Miguel County, Colorado"
40.8759049641,-102.351791195,08115,"Sedgwick County, Colorado"
39.634170806,-106.116379137,08117,"Summit County, Colorado"
38.8821720468,-105.161826391,08119,"Teller County, Colorado"
39.9710617874,-103.201252881,08121,"Washington County, Colorado"
40.5548298977,-104.392531357,08123,"Weld County, Colorado"
40.0028993432,-102.424226323,08125,"Yuma County, Colorado"
41.2249600832,-73.3712046145,09001,"Fairfield County, Connecticut"
41.8064287933,-72.7328122495,09003,"Hartford County, Connecticut"
41.7924983178,-73.2453207905,09005,"Litchfield County, Connecticut"
41.4353818043,-72.5231194296,09007,"Middlesex County, Connecticut"
41.3488242868,-72.8998576911,09009,"New Haven County, Connecticut"
41.4667862464,-72.1065129033,09011,"New London County, Connecticut"
41.855065982,-72.3365016791,09013,"Tolland County, Connecticut"
41.8300455104,-71.9874782796,09015,"Windham County, Connecticut"
39.0959545402,-75.5046137018,10001,"Kent County, Delaware"
39.5783299005,-75.6389781252,10003,"New Castle County, Delaware"
38.6832973547,-75.3395417153,10005,"Sussex County, Delaware"
38.9047737146,-77.0163026702,11001,"District of Columbia, District of Columbia"
29.6747549911,-82.3577015483,12001,"Alachua County, Florida"
30.331070985,-82.2845872684,12003,"Baker County, Florida"
30.237646533,-85.6326228076,12005,"Bay County, Florida"
29.9499595746,-82.1687777662,12007,"Bradford County, Florida"
28.300314142,-80.7012054832,12009,"Brevard County, Florida"
26.1518560378,-80.4558842537,12011,"Broward County, Florida"
30.4060343343,-85.1972071433,12013,"Calhoun County, Florida"
26.8998432654,-81.9503159678,12015,"Charlotte County, Florida"
28.8475696914,-82.5201067311,12017,"Citrus County, Florida"
29.9830664456,-81.8578845259,12019,"Clay County, Florida"
26.0992389901,-81.3809730552,12021,"Collier County, Florida"
30.2242399397,-82.6215388925,12023,"Columbia County, Florida"
27.1863023348,-81.8094429515,12027,"DeSoto County, Florida"
29.5812415277,-83.1870324531,12029,"Dixie County, Florida"
30.3354403303,-81.6480093213,12031,"Duval County, Florida"
30.6143960313,-87.3413643298,12033,"Escambia County, Florida"
29.4711426482,-81.2929913884,12035,"Flagler County, Florida"
29.8116835857,-84.8004565948,12037,"Franklin County, Florida"
30.5794688821,-84.6135993294,12039,"Gadsden County, Florida"
29.7258227162,-82.8003665306,12041,"Gilchrist County, Florida"
26.9564459351,-81.1890293853,12043,"Glades County, Florida"
29.9086211231,-85.2610062794,12045,"Gulf County, Florida"
30.4964266893,-82.9479591393,12047,"Hamilton County, Florida"
27.4927094815,-81.8100059395,12049,"Hardee County, Florida"
26.5534898513,-81.1659012496,12051,"Hendry County, Florida"
28.5561708513,-82.4684895116,12053,"Hernando County, Florida"
27.3433797347,-81.3410379056,12055,"Highlands County, Florida"
27.9062278359,-82.346916153,12057,"Hillsborough County, Florida"
30.8678906078,-85.8141023534,12059,"Holmes County, Florida"
27.6963908471,-80.5740896149,12061,"Indian River County, Florida"
30.7953911236,-85.2154596916,12063,"Jackson County, Florida"
30.4234582107,-83.9004744786,12065,"Jefferson County, Florida"
29.9855183221,-83.1810673054,12067,"Lafayette County, Florida"
28.7614688332,-81.7113031676,12069,"Lake County, Florida"
26.5756896561,-81.9154527285,12071,"Lee County, Florida"
30.458037893,-84.2778815189,12073,"Leon County, Florida"
29.2822055783,-82.7886132018,12075,"Levy County, Florida"
30.2413631478,-84.8829111582,12077,"Liberty County, Florida"
30.4441430277,-83.4701228264,12079,"Madison County, Florida"
27.4775188749,-82.3575458711,12081,"Manatee County, Florida"
29.2102022904,-82.0566756823,12083,"Marion County, Florida"
27.0816164392,-80.3984639525,12085,"Martin County, Florida"
25.6089674858,-80.4986673175,12086,"Miami-Dade County, Florida"
25.0467803277,-81.1856924179,12087,"Monroe County, Florida"
30.6105780997,-81.7714179132,12089,"Nassau County, Florida"
30.6650297247,-86.5921750794,12091,"Okaloosa County, Florida"
27.3863036127,-80.888585011,12093,"Okeechobee County, Florida"
28.5144162588,-81.3234735281,12095,"Orange County, Florida"
28.0626646156,-81.1494997552,12097,"Osceola County, Florida"
26.6475645688,-80.4365110484,12099,"Palm Beach County, Florida"
28.3067419076,-82.438869799,12101,"Pasco County, Florida"
27.9026762041,-82.7395539464,12103,"Pinellas County, Florida"
27.9488714857,-81.6976853961,12105,"Polk County, Florida"
29.6086348479,-81.7443041288,12107,"Putnam County, Florida"
29.9121811706,-81.4098866827,12109,"St. Johns County, Florida"
27.3808664203,-80.4456030776,12111,"St. Lucie County, Florida"
30.6929040291,-87.0184494886,12113,"Santa Rosa County, Florida"
27.1824778115,-82.3649735213,12115,"Sarasota County, Florida"
28.7169755783,-81.2363275276,12117,"Seminole County, Florida"
28.7048225353,-82.0809953636,12119,"Sumter County, Florida"
30.1956117481,-82.9914923725,12121,"Suwannee County, Florida"
30.0195666061,-83.6189726465,12123,"Taylor County, Florida"
30.0438391148,-82.3714410129,12125,"Union County, Florida"
29.0634475051,-81.1485743573,12127,"Volusia County, Florida"
30.1477719789,-84.3756074885,12129,"Wakulla County, Florida"
30.6184688458,-86.1715163089,12131,"Walton County, Florida"
30.6105923313,-85.6653287163,12133,"Washington County, Florida"
31.7492803518,-82.288983582,13001,"Appling County, Georgia"
31.2971083422,-82.8799928978,13003,"Atkinson County, Georgia"
31.5536748311,-82.4526850982,13005,"Bacon County, Georgia"
31.326183927,-84.4446694741,13007,"Baker County, Georgia"
33.0692757535,-83.2495906334,13009,"Baldwin County, Georgia"
34.3541370113,-83.4973801652,13011,"Banks County, Georgia"
33.9931962064,-83.7127549805,13013,"Barrow County, Georgia"
34.2376620909,-84.8403384771,13015,"Bartow County, Georgia"
31.7597819469,-83.2204589709,13017,"Ben Hill County, Georgia"
31.2760599041,-83.229622,13019,"Berrien County, Georgia"
32.8064982238,-83.6974200138,13021,"Bibb County, Georgia"
32.4344414462,-83.3278388255,13023,"Bleckley County, Georgia"
31.1968761426,-81.9818955745,13025,"Brantley County, Georgia"
30.8419677363,-83.5802119065,13027,"Brooks County, Georgia"
32.013224335,-81.4424722248,13029,"Bryan County, Georgia"
32.3968141786,-81.7431781429,13031,"Bulloch County, Georgia"
33.0611535027,-82.0007811537,13033,"Burke County, Georgia"
33.2878507429,-83.9571695116,13035,"Butts County, Georgia"
31.5291972743,-84.6245076946,13037,"Calhoun County, Georgia"
30.9224883015,-81.6363849358,13039,"Camden County, Georgia"
32.403442782,-82.0736728222,13043,"Candler County, Georgia"
33.5827978515,-85.0797630545,13045,"Carroll County, Georgia"
34.9036574214,-85.1382470065,13047,"Catoosa County, Georgia"
30.7817272016,-82.1376881412,13049,"Charlton County, Georgia"
31.9739511211,-81.0939703133,13051,"Chatham County, Georgia"
32.346971275,-84.7870462059,13053,"Chattahoochee County, Georgia"
34.4750152607,-85.3452913609,13055,"Chattooga County, Georgia"
34.2439383654,-84.4761934266,13057,"Cherokee County, Georgia"
33.9511687467,-83.3673290793,13059,"Clarke County, Georgia"
31.6262755156,-84.9801029119,13061,"Clay County, Georgia"
33.5419006063,-84.3576542517,13063,"Clayton County, Georgia"
30.9149468971,-82.7062370645,13065,"Clinch County, Georgia"
33.9414815247,-84.5766842461,13067,"Cobb County, Georgia"
31.5492717947,-82.8492009827,13069,"Coffee County, Georgia"
31.1883904668,-83.7688482856,13071,"Colquitt County, Georgia"
33.5441179101,-82.2640527023,13073,"Columbia County, Georgia"
31.1539910285,-83.4304650673,13075,"Cook County, Georgia"
33.3534616689,-84.7633607428,13077,"Coweta County, Georgia"
32.7145016626,-83.9863423246,13079,"Crawford County, Georgia"
31.9229299181,-83.768102221,13081,"Crisp County, Georgia"
34.854520662,-85.5045272078,13083,"Dade County, Georgia"
34.4442980744,-84.1706356875,13085,"Dawson County, Georgia"
30.8783441069,-84.5790701498,13087,"Decatur County, Georgia"
33.7715468713,-84.226432416,13089,"DeKalb County, Georgia"
32.1721824488,-83.168399978,13091,"Dodge County, Georgia"
32.1571759799,-83.7987668507,13093,"Dooly County, Georgia"
31.5333740309,-84.2162536823,13095,"Dougherty County, Georgia"
33.701828378,-84.7679728373,13097,"Douglas County, Georgia"
31.3228327133,-84.9036434233,13099,"Early County, Georgia"
30.7100896074,-82.8939351883,13101,"Echols County, Georgia"
32.3673093945,-81.3413404834,13103,"Effingham County, Georgia"
34.1167932846,-82.8400954979,13105,"Elbert County, Georgia"
32.5897619047,-82.301708462,13107,"Emanuel County, Georgia"
32.1567629596,-81.8868846224,13109,"Evans County, Georgia"
34.8641146532,-84.3198525836,13111,"Fannin County, Georgia"
33.4139430365,-84.4941911259,13113,"Fayette County, Georgia"
34.263162689,-85.2142786499,13115,"Floyd County, Georgia"
34.225546386,-84.1250173789,13117,"Forsyth County, Georgia"
34.3754273152,-83.2291886374,13119,"Franklin County, Georgia"
33.7902830104,-84.4669897339,13121,"Fulton County, Georgia"
34.6911781057,-84.4556269832,13123,"Gilmer County, Georgia"
33.2292799721,-82.6107022318,13125,"Glascock County, Georgia"
31.2132418055,-81.4936975935,13127,"Glynn County, Georgia"
34.5031701949,-84.8759139254,13129,"Gordon County, Georgia"
30.8746728358,-84.2344263446,13131,"Grady County, Georgia"
33.5787842008,-83.1666552038,13133,"Greene County, Georgia"
33.9617197861,-84.0236132972,13135,"Gwinnett County, Georgia"
34.6310256133,-83.5311320934,13137,"Habersham County, Georgia"
34.316890097,-83.81967864,13139,"Hall County, Georgia"
33.2704260085,-83.0006868923,13141,"Hancock County, Georgia"
33.7942334247,-85.2110263502,13143,"Haralson County, Georgia"
32.7360040875,-84.9089881157,13145,"Harris County, Georgia"
34.3508983325,-82.9642475976,13147,"Hart County, Georgia"
33.2970283837,-85.128270367,13149,"Heard County, Georgia"
33.4529935799,-84.1541806022,13151,"Henry County, Georgia"
32.458996427,-83.6662408919,13153,"Houston County, Georgia"
31.6022829517,-83.2763750394,13155,"Irwin County, Georgia"
34.1338827438,-83.5663480377,13157,"Jackson County, Georgia"
33.3164335785,-83.6880895838,13159,"Jasper County, Georgia"
31.8055957772,-82.6369408916,13161,"Jeff Davis County, Georgia"
33.0548441405,-82.4181514496,13163,"Jefferson County, Georgia"
32.7924711254,-81.9635320121,13165,"Jenkins County, Georgia"
32.7014650504,-82.6600810997,13167,"Johnson County, Georgia"
33.0251331683,-83.5605241695,13169,"Jones County, Georgia"
33.0765357599,-84.1394626622,13171,"Lamar County, Georgia"
31.0378936572,-83.0626533592,13173,"Lanier County, Georgia"
32.4636565938,-82.9222383646,13175,"Laurens County, Georgia"
31.7795065577,-84.1411344532,13177,"Lee County, Georgia"
31.8072288628,-81.4562556854,13179,"Liberty County, Georgia"
33.7936596461,-82.4512128043,13181,"Lincoln County, Georgia"
31.752584831,-81.7457669756,13183,"Long County, Georgia"
30.8338568988,-83.2677076921,13185,"Lowndes County, Georgia"
34.5721889489,-84.0026558339,13187,"Lumpkin County, Georgia"
33.4828592099,-82.4813683615,13189,"McDuffie County, Georgia"
31.4838062078,-81.3755663746,13191,"McIntosh County, Georgia"
32.3583825945,-84.0424794131,13193,"Macon County, Georgia"
34.1277855795,-83.2090415694,13195,"Madison County, Georgia"
32.3533781815,-84.5246378869,13197,"Marion County, Georgia"
33.0406559359,-84.6883115804,13199,"Meriwether County, Georgia"
31.1639914481,-84.7307216738,13201,"Miller County, Georgia"
31.2253196926,-84.1943088346,13205,"Mitchell County, Georgia"
33.0138972496,-83.9186821405,13207,"Monroe County, Georgia"
32.1733642109,-82.5348172563,13209,"Montgomery County, Georgia"
33.5908249244,-83.4923823005,13211,"Morgan County, Georgia"
34.7884475042,-84.7480935785,13213,"Murray County, Georgia"
32.5099583696,-84.8770429861,13215,"Muscogee County, Georgia"
33.5550489458,-83.8501865375,13217,"Newton County, Georgia"
33.8349402867,-83.437054781,13219,"Oconee County, Georgia"
33.8806479609,-83.0807032108,13221,"Oglethorpe County, Georgia"
33.9205455549,-84.867288503,13223,"Paulding County, Georgia"
32.5687919024,-83.8268633608,13225,"Peach County, Georgia"
34.4643197803,-84.4656390578,13227,"Pickens County, Georgia"
31.3587576021,-82.2127427051,13229,"Pierce County, Georgia"
33.0922652469,-84.3892346459,13231,"Pike County, Georgia"
34.0017844854,-85.1881533822,13233,"Polk County, Georgia"
32.2322990847,-83.4759611368,13235,"Pulaski County, Georgia"
33.3217673671,-83.3728413605,13237,"Putnam County, Georgia"
31.8673305599,-85.0187841576,13239,"Quitman County, Georgia"
34.8817246173,-83.4020764834,13241,"Rabun County, Georgia"
31.7626226688,-84.7541920738,13243,"Randolph County, Georgia"
33.3596322314,-82.0735477739,13245,"Richmond County, Georgia"
33.6542354352,-84.0266082893,13247,"Rockdale County, Georgia"
32.2616858077,-84.3147208166,13249,"Schley County, Georgia"
32.7505866271,-81.6119345544,13251,"Screven County, Georgia"
30.9387779365,-84.8688701106,13253,"Seminole County, Georgia"
33.2608769536,-84.2841507002,13255,"Spalding County, Georgia"
34.5539435236,-83.2934335296,13257,"Stephens County, Georgia"
32.0784621843,-84.8352023744,13259,"Stewart County, Georgia"
32.039959396,-84.1970560516,13261,"Sumter County, Georgia"
32.699486303,-84.5330101769,13263,"Talbot County, Georgia"
33.5660908408,-82.8787644687,13265,"Taliaferro County, Georgia"
32.0457484071,-82.0581758793,13267,"Tattnall County, Georgia"
32.5554592715,-84.2504642348,13269,"Taylor County, Georgia"
31.929800968,-82.9389875255,13271,"Telfair County, Georgia"
31.7768809864,-84.4369222013,13273,"Terrell County, Georgia"
30.8636815475,-83.9193134094,13275,"Thomas County, Georgia"
31.4574378292,-83.5265943229,13277,"Tift County, Georgia"
32.1217203314,-82.3312929099,13279,"Toombs County, Georgia"
34.9167055034,-83.7372785445,13281,"Towns County, Georgia"
32.4038815035,-82.567282527,13283,"Treutlen County, Georgia"
33.0335103757,-85.0283367991,13285,"Troup County, Georgia"
31.7163847519,-83.6240929756,13287,"Turner County, Georgia"
32.6672014402,-83.4270835327,13289,"Twiggs County, Georgia"
34.8340257189,-83.990719955,13291,"Union County, Georgia"
32.8812700424,-84.2993435146,13293,"Upson County, Georgia"
34.7356590026,-85.3009850599,13295,"Walker County, Georgia"
33.7815571316,-83.7338466262,13297,"Walton County, Georgia"
31.0536324937,-82.4236757904,13299,"Ware County, Georgia"
33.4089633624,-82.6767617191,13301,"Warren County, Georgia"
32.9695357353,-82.7958991685,13303,"Washington County, Georgia"
31.5514336788,-81.9167587358,13305,"Wayne County, Georgia"
32.0466488616,-84.5510526557,13307,"Webster County, Georgia"
32.1170652349,-82.7245932678,13309,"Wheeler County, Georgia"
34.6463905658,-83.747108233,13311,"White County, Georgia"
34.8056115749,-84.9672206823,13313,"Whitfield County, Georgia"
31.9728932009,-83.4323638025,13315,"Wilcox County, Georgia"
33.7819451825,-82.743226753,13317,"Wilkes County, Georgia"
32.8024055204,-83.1712490669,13319,"Wilkinson County, Georgia"
31.5515116745,-83.8508756933,13321,"Worth County, Georgia"
19.6023968175,-155.522885864,15001,"Hawaii County, Hawaii"
23.7186403965,-164.736740347,15003,"Honolulu County, Hawaii"
21.2118898113,-156.954041591,15005,"Kalawao County, Hawaii"
22.0110798698,-159.7054382,15007,"Kauai County, Hawaii"
20.867735408,-156.617058801,15009,"Maui County, Hawaii"
43.4511000415,-116.241166631,16001,"Ada County, Idaho"
44.8895880248,-116.453882862,16003,"Adams County, Idaho"
42.6684852128,-112.224618777,16005,"Bannock County, Idaho"
42.2847872565,-111.329738822,16007,"Bear Lake County, Idaho"
47.2175378518,-116.658654162,16009,"Benewah County, Idaho"
43.2165580516,-112.398078523,16011,"Bingham County, Idaho"
43.411940562,-113.980147573,16013,"Blaine County, Idaho"
43.9891394613,-115.730322485,16015,"Boise County, Idaho"
48.3000250033,-116.601061373,16017,"Bonner County, Idaho"
43.3877423794,-111.614752705,16019,"Bonneville County, Idaho"
48.7668933923,-116.462903445,16021,"Boundary County, Idaho"
43.7229327365,-113.172032247,16023,"Butte County, Idaho"
43.4633261176,-114.805776873,16025,"Camas County, Idaho"
43.6250870279,-116.709270124,16027,"Canyon County, Idaho"
42.7705180974,-111.562215274,16029,"Caribou County, Idaho"
42.2838809992,-113.600088287,16031,"Cassia County, Idaho"
44.2839056343,-112.351297512,16033,"Clark County, Idaho"
46.6737194276,-115.65690713,16035,"Clearwater County, Idaho"
44.2411163796,-114.281712396,16037,"Custer County, Idaho"
43.3538854014,-115.469262353,16039,"Elmore County, Idaho"
42.1810916537,-111.813201111,16041,"Franklin County, Idaho"
44.2287741072,-111.481955865,16043,"Fremont County, Idaho"
44.061546541,-116.397518964,16045,"Gem County, Idaho"
42.9710217012,-114.811514939,16047,"Gooding County, Idaho"
45.8441976984,-115.46748731,16049,"Idaho County, Idaho"
43.8201324535,-112.311302461,16051,"Jefferson County, Idaho"
42.6899047449,-114.263941364,16053,"Jerome County, Idaho"
47.6743566297,-116.701762031,16055,"Kootenai County, Idaho"
46.8161762124,-116.711723179,16057,"Latah County, Idaho"
44.9432516761,-113.933251642,16059,"Lemhi County, Idaho"
46.2369933896,-116.426326116,16061,"Lewis County, Idaho"
43.0023986959,-114.138200808,16063,"Lincoln County, Idaho"
43.7841402516,-111.659188485,16065,"Madison County, Idaho"
42.8542597176,-113.637461803,16067,"Minidoka County, Idaho"
46.326849228,-116.750277131,16069,"Nez Perce County, Idaho"
42.1949698367,-112.539356598,16071,"Oneida County, Idaho"
42.5814260739,-116.169968363,16073,"Owyhee County, Idaho"
44.0067583131,-116.76084539,16075,"Payette County, Idaho"
42.6936561133,-112.840655966,16077,"Power County, Idaho"
47.3529575649,-115.892435463,16079,"Shoshone County, Idaho"
43.759429876,-111.207614545,16081,"Teton County, Idaho"
42.3558758962,-114.667148472,16083,"Twin Falls County, Idaho"
44.7666370786,-115.566279021,16085,"Valley County, Idaho"
44.4524547726,-116.784781333,16087,"Washington County, Idaho"
39.9879052609,-91.1884921409,17001,"Adams County, Illinois"
37.191593361,-89.3376041231,17003,"Alexander County, Illinois"
38.8868296401,-89.4355442381,17005,"Bond County, Illinois"
42.3230756866,-88.8233754157,17007,"Boone County, Illinois"
39.9617616288,-90.7503556212,17009,"Brown County, Illinois"
41.4041459264,-89.5286557577,17011,"Bureau County, Illinois"
39.1692979289,-90.6675721556,17013,"Calhoun County, Illinois"
42.0687539209,-89.9343041982,17015,"Carroll County, Illinois"
39.9735467174,-90.247375054,17017,"Cass County, Illinois"
40.1400890018,-88.1991706674,17019,"Champaign County, Illinois"
39.5458317531,-89.2772543125,17021,"Christian County, Illinois"
39.3335754723,-87.7877174066,17023,"Clark County, Illinois"
38.7541714951,-88.4902374225,17025,"Clay County, Illinois"
38.6064621876,-89.4224823889,17027,"Clinton County, Illinois"
39.5202961461,-88.2217534978,17029,"Coles County, Illinois"
41.8954290221,-87.6461407931,17031,"Cook County, Illinois"
39.0026980674,-87.7595511478,17033,"Crawford County, Illinois"
39.2733468255,-88.2401981662,17035,"Cumberland County, Illinois"
41.8935293191,-88.7703159232,17037,"DeKalb County, Illinois"
40.1746293382,-88.9040887049,17039,"De Witt County, Illinois"
39.7694547721,-88.2173347046,17041,"Douglas County, Illinois"
41.8519557671,-88.0855946496,17043,"DuPage County, Illinois"
39.6785303915,-87.7455648767,17045,"Edgar County, Illinois"
38.4164943803,-88.053300973,17047,"Edwards County, Illinois"
39.0597819407,-88.5898533622,17049,"Effingham County, Illinois"
39.0001785652,-89.0241202321,17051,"Fayette County, Illinois"
40.597165174,-88.2232738465,17053,"Ford County, Illinois"
37.9922926916,-88.9241655023,17055,"Franklin County, Illinois"
40.4727799619,-90.2074818825,17057,"Fulton County, Illinois"
37.7627564124,-88.230465738,17059,"Gallatin County, Illinois"
39.3561681629,-90.3904985092,17061,"Greene County, Illinois"
41.2851032069,-88.4184956524,17063,"Grundy County, Illinois"
38.0815539776,-88.5390962907,17065,"Hamilton County, Illinois"
40.4037747348,-91.1646955496,17067,"Hancock County, Illinois"
37.5181798892,-88.2667801291,17069,"Hardin County, Illinois"
40.8181139287,-90.925108658,17071,"Henderson County, Illinois"
41.3531364976,-90.1314083142,17073,"Henry County, Illinois"
40.7472371326,-87.8242979012,17075,"Iroquois County, Illinois"
37.7851065199,-89.3820759403,17077,"Jackson County, Illinois"
39.0100394517,-88.1538411275,17079,"Jasper County, Illinois"
38.3005234344,-88.9240091565,17081,"Jefferson County, Illinois"
39.0855054887,-90.3565282985,17083,"Jersey County, Illinois"
42.3658182043,-90.2125952059,17085,"Jo Daviess County, Illinois"
37.4596486226,-88.8809285275,17087,"Johnson County, Illinois"
41.9388566679,-88.4286377038,17089,"Kane County, Illinois"
41.1377184724,-87.8618317846,17091,"Kankakee County, Illinois"
41.590577647,-88.4287883539,17093,"Kendall County, Illinois"
40.9318279821,-90.2132382621,17095,"Knox County, Illinois"
42.325322722,-87.6311845438,17097,"Lake County, Illinois"
41.3440027805,-88.8859379256,17099,"LaSalle County, Illinois"
38.7199480156,-87.7267298383,17101,"Lawrence County, Illinois"
41.7461054437,-89.3003092504,17103,"Lee County, Illinois"
40.8915578871,-88.5577158078,17105,"Livingston County, Illinois"
40.1245363517,-89.3675209057,17107,"Logan County, Illinois"
40.4562312432,-90.6778776624,17109,"McDonough County, Illinois"
42.3243507876,-88.4524199255,17111,"McHenry County, Illinois"
40.4908916187,-88.847324278,17113,"McLean County, Illinois"
39.8600027881,-88.9615519316,17115,"Macon County, Illinois"
39.2610229552,-89.924455051,17117,"Macoupin County, Illinois"
38.8297122608,-89.90499843,17119,"Madison County, Illinois"
38.6495781117,-88.9189811153,17121,"Marion County, Illinois"
41.0331711391,-89.3447914374,17123,"Marshall County, Illinois"
40.2396222297,-89.9168137955,17125,"Mason County, Illinois"
37.2190501994,-88.7077397007,17127,"Massac County, Illinois"
40.0274157084,-89.8021776433,17129,"Menard County, Illinois"
41.2053450175,-90.7413938887,17131,"Mercer County, Illinois"
38.2785594463,-90.1772845526,17133,"Monroe County, Illinois"
39.2310459341,-89.4788485523,17135,"Montgomery County, Illinois"
39.7155561425,-90.2015195408,17137,"Morgan County, Illinois"
39.6414721595,-88.6192951938,17139,"Moultrie County, Illinois"
42.0425663561,-89.3207266558,17141,"Ogle County, Illinois"
40.7880635936,-89.7599800409,17143,"Peoria County, Illinois"
38.083736798,-89.3670210808,17145,"Perry County, Illinois"
40.0103527451,-88.5910866502,17147,"Piatt County, Illinois"
39.6224801785,-90.8863042728,17149,"Pike County, Illinois"
37.4127561973,-88.5616201146,17151,"Pope County, Illinois"
37.222980428,-89.1265952453,17153,"Pulaski County, Illinois"
41.2044899818,-89.2857803179,17155,"Putnam County, Illinois"
38.0520825054,-89.825176402,17157,"Randolph County, Illinois"
38.7123597006,-88.0851335477,17159,"Richland County, Illinois"
41.4673285687,-90.5674126031,17161,"Rock Island County, Illinois"
38.4703210348,-89.9283990217,17163,"St. Clair County, Illinois"
37.7531363894,-88.5407417954,17165,"Saline County, Illinois"
39.7581742368,-89.6589101835,17167,"Sangamon County, Illinois"
40.1580424715,-90.6150952137,17169,"Schuyler County, Illinois"
39.6441138538,-90.474747165,17171,"Scott County, Illinois"
39.3911561848,-88.8055049879,17173,"Shelby County, Illinois"
41.0933920308,-89.7974473885,17175,"Stark County, Illinois"
42.3518291045,-89.6622542939,17177,"Stephenson County, Illinois"
40.5075329902,-89.5134035348,17179,"Tazewell County, Illinois"
37.4712716191,-89.255127403,17181,"Union County, Illinois"
40.183401621,-87.732815214,17183,"Vermilion County, Illinois"
38.4461016023,-87.8442748908,17185,"Wabash County, Illinois"
40.8488341603,-90.6150375695,17187,"Warren County, Illinois"
38.3521828118,-89.4104744564,17189,"Washington County, Illinois"
38.4295611651,-88.4256137919,17191,"Wayne County, Illinois"
38.0874875679,-88.1795748823,17193,"White County, Illinois"
41.7562548803,-89.9141029918,17195,"Whiteside County, Illinois"
41.4450504457,-87.9786458597,17197,"Will County, Illinois"
37.7302529228,-88.9299244512,17199,"Williamson County, Illinois"
42.3362603021,-89.1608658488,17201,"Winnebago County, Illinois"
40.7882358798,-89.2111061648,17203,"Woodford County, Illinois"
40.7456599313,-84.9366547189,18001,"Adams County, Indiana"
41.0908708811,-85.0665620402,18003,"Allen County, Indiana"
39.2059705721,-85.8976029732,18005,"Bartholomew County, Indiana"
40.606258463,-87.310906018,18007,"Benton County, Indiana"
40.473600561,-85.3248199236,18009,"Blackford County, Indiana"
40.0508013832,-86.4686962098,18011,"Boone County, Indiana"
39.1962111616,-86.2273748048,18013,"Brown County, Indiana"
40.582858561,-86.5634841334,18015,"Carroll County, Indiana"
40.761491497,-86.3459465589,18017,"Cass County, Indiana"
38.47719455,-85.7072716297,18019,"Clark County, Indiana"
39.3927278538,-87.1157584406,18021,"Clay County, Indiana"
40.3016905964,-86.4751595355,18023,"Clinton County, Indiana"
38.292414567,-86.4517083941,18025,"Crawford County, Indiana"
38.7024099657,-87.0720684602,18027,"Daviess County, Indiana"
39.1451918976,-84.973258532,18029,"Dearborn County, Indiana"
39.3069999343,-85.5011430488,18031,"Decatur County, Indiana"
41.3975800161,-84.999084282,18033,"DeKalb County, Indiana"
40.2275253191,-85.3968993017,18035,"Delaware County, Indiana"
38.3642764332,-86.8798021177,18037,"Dubois County, Indiana"
41.5973844823,-85.8587552785,18039,"Elkhart County, Indiana"
39.6400558465,-85.1787249608,18041,"Fayette County, Indiana"
38.3189286397,-85.9068307178,18043,"Floyd County, Indiana"
40.1208707645,-87.2419916982,18045,"Fountain County, Indiana"
39.4148645227,-85.0602848847,18047,"Franklin County, Indiana"
41.0469632989,-86.2635836849,18049,"Fulton County, Indiana"
38.311825371,-87.584594368,18051,"Gibson County, Indiana"
40.5158445871,-85.6547259036,18053,"Grant County, Indiana"
39.0363277254,-86.962046365,18055,"Greene County, Indiana"
40.072489475,-86.0520142517,18057,"Hamilton County, Indiana"
39.8235499831,-85.7732376368,18059,"Hancock County, Indiana"
38.1951228784,-86.1113109452,18061,"Harrison County, Indiana"
39.769517371,-86.5099758786,18063,"Hendricks County, Indiana"
39.9310397361,-85.3964353742,18065,"Henry County, Indiana"
40.4835856225,-86.1169307298,18067,"Howard County, Indiana"
40.8292399575,-85.4881722777,18069,"Huntington County, Indiana"
38.9064174884,-86.0375413468,18071,"Jackson County, Indiana"
41.0229983046,-87.1161212419,18073,"Jasper County, Indiana"
40.4379183725,-85.0056353252,18075,"Jay County, Indiana"
38.7858226615,-85.4385728826,18077,"Jefferson County, Indiana"
38.9969300555,-85.6280646001,18079,"Jennings County, Indiana"
39.4899707456,-86.1016367881,18081,"Johnson County, Indiana"
38.6890898846,-87.4180084675,18083,"Knox County, Indiana"
41.244097338,-85.8607176828,18085,"Kosciusko County, Indiana"
41.6426062358,-85.4264979093,18087,"LaGrange County, Indiana"
41.4722121302,-87.3763856,18089,"Lake County, Indiana"
41.5490215572,-86.7423662187,18091,"LaPorte County, Indiana"
38.8411628915,-86.4834511309,18093,"Lawrence County, Indiana"
40.1616556187,-85.7193451682,18095,"Madison County, Indiana"
39.7817096805,-86.1384716709,18097,"Marion County, Indiana"
41.3248489608,-86.2617612923,18099,"Marshall County, Indiana"
38.7080111869,-86.8030654716,18101,"Martin County, Indiana"
40.7695040098,-86.0450230743,18103,"Miami County, Indiana"
39.1609175598,-86.5231372076,18105,"Monroe County, Indiana"
40.0403785235,-86.8932997962,18107,"Montgomery County, Indiana"
39.4815483458,-86.4462121421,18109,"Morgan County, Indiana"
40.9558477436,-87.3975365943,18111,"Newton County, Indiana"
41.3985995057,-85.4174667322,18113,"Noble County, Indiana"
38.9500945902,-84.9650431209,18115,"Ohio County, Indiana"
38.5417788857,-86.4950692821,18117,"Orange County, Indiana"
39.3128100483,-86.8376542268,18119,"Owen County, Indiana"
39.7736200492,-87.2063672164,18121,"Parke County, Indiana"
38.0796491352,-86.6380317986,18123,"Perry County, Indiana"
38.3987832635,-87.2321643219,18125,"Pike County, Indiana"
41.5088382943,-87.0733191356,18127,"Porter County, Indiana"
38.0218915518,-87.8684711826,18129,"Posey County, Indiana"
41.0418321081,-86.6987792624,18131,"Pulaski County, Indiana"
39.6662617907,-86.8449997676,18133,"Putnam County, Indiana"
40.1576395642,-85.011310408,18135,"Randolph County, Indiana"
39.1034546659,-85.262386374,18137,"Ripley County, Indiana"
39.6199484364,-85.4657611777,18139,"Rush County, Indiana"
41.6167180092,-86.2898576945,18141,"St. Joseph County, Indiana"
38.6850699523,-85.7474680992,18143,"Scott County, Indiana"
39.5236921944,-85.7917003981,18145,"Shelby County, Indiana"
38.0140589617,-87.0077059131,18147,"Spencer County, Indiana"
41.2809264377,-86.6476485661,18149,"Starke County, Indiana"
41.6438678779,-85.000764854,18151,"Steuben County, Indiana"
39.0888346851,-87.4146903866,18153,"Sullivan County, Indiana"
38.8261607682,-85.0369979159,18155,"Switzerland County, Indiana"
40.3886187334,-86.8940974128,18157,"Tippecanoe County, Indiana"
40.3113452381,-86.0518589748,18159,"Tipton County, Indiana"
39.6255458453,-84.9251420286,18161,"Union County, Indiana"
38.0249578597,-87.5857849635,18163,"Vanderburgh County, Indiana"
39.8538114574,-87.4639782841,18165,"Vermillion County, Indiana"
39.4306386001,-87.3899644539,18167,"Vigo County, Indiana"
40.8456930058,-85.7940056739,18169,"Wabash County, Indiana"
40.3469033297,-87.3533144839,18171,"Warren County, Indiana"
38.0921662434,-87.2720537447,18173,"Warrick County, Indiana"
38.5999841735,-86.1053059023,18175,"Washington County, Indiana"
39.8644164614,-85.0098761363,18177,"Wayne County, Indiana"
40.7291866469,-85.2212198576,18179,"Wells County, Indiana"
40.7497715932,-86.8654694016,18181,"White County, Indiana"
41.1393753356,-85.505117935,18183,"Whitley County, Indiana"
41.3307464286,-94.4709413442,19001,"Adair County, Iowa"
41.0289838852,-94.6991848828,19003,"Adams County, Iowa"
43.2842837871,-91.3780922862,19005,"Allamakee County, Iowa"
40.74316347,-92.8686104167,19007,"Appanoose County, Iowa"
41.6845893285,-94.905822196,19009,"Audubon County, Iowa"
42.080174751,-92.0657317334,19011,"Benton County, Iowa"
42.470095744,-92.3088197079,19013,"Black Hawk County, Iowa"
42.0365026335,-93.9316370877,19015,"Boone County, Iowa"
42.7745872458,-92.3180548339,19017,"Bremer County, Iowa"
42.4707837931,-91.837842149,19019,"Buchanan County, Iowa"
42.7354936212,-95.1511488586,19021,"Buena Vista County, Iowa"
42.7315661359,-92.7901934384,19023,"Butler County, Iowa"
42.3851848526,-94.6404136047,19025,"Calhoun County, Iowa"
42.0362382229,-94.8605592807,19027,"Carroll County, Iowa"
41.331487609,-94.9278266277,19029,"Cass County, Iowa"
41.7723266607,-91.1324230468,19031,"Cedar County, Iowa"
43.0815577125,-93.2608184346,19033,"Cerro Gordo County, Iowa"
42.7356225783,-95.6238053959,19035,"Cherokee County, Iowa"
43.0600413474,-92.3176637461,19037,"Chickasaw County, Iowa"
41.0290322944,-93.7851578386,19039,"Clarke County, Iowa"
43.0825803991,-95.1509194224,19041,"Clay County, Iowa"
42.8447493088,-91.3414327747,19043,"Clayton County, Iowa"
41.8980358084,-90.5319724291,19045,"Clinton County, Iowa"
42.037212461,-95.3819677478,19047,"Crawford County, Iowa"
41.6848582046,-94.0397619265,19049,"Dallas County, Iowa"
40.7476890807,-92.4097172922,19051,"Davis County, Iowa"
40.737682711,-93.7862814096,19053,"Decatur County, Iowa"
42.4712208979,-91.367341411,19055,"Delaware County, Iowa"
40.9231743916,-91.181482989,19057,"Des Moines County, Iowa"
43.3779847631,-95.1508300608,19059,"Dickinson County, Iowa"
42.4688224327,-90.8825218504,19061,"Dubuque County, Iowa"
43.37802248,-94.6784802642,19063,"Emmet County, Iowa"
42.8625961548,-91.8443243326,19065,"Fayette County, Iowa"
43.0599208476,-92.7890033704,19067,"Floyd County, Iowa"
42.7325458524,-93.2624729913,19069,"Franklin County, Iowa"
40.7455891853,-95.6046765408,19071,"Fremont County, Iowa"
42.0362403729,-94.3968169905,19073,"Greene County, Iowa"
42.4018650655,-92.7914177407,19075,"Grundy County, Iowa"
41.6837548102,-94.5010550107,19077,"Guthrie County, Iowa"
42.383771317,-93.7068096741,19079,"Hamilton County, Iowa"
43.0818860731,-93.7342722978,19081,"Hancock County, Iowa"
42.3838803185,-93.2404024994,19083,"Hardin County, Iowa"
41.6828527455,-95.8169208876,19085,"Harrison County, Iowa"
40.9879710088,-91.5445322832,19087,"Henry County, Iowa"
43.3567673364,-92.3171989039,19089,"Howard County, Iowa"
42.7764677574,-94.2071830507,19091,"Humboldt County, Iowa"
42.3868746602,-95.5134961566,19093,"Ida County, Iowa"
41.6863234292,-92.0655240141,19095,"Iowa County, Iowa"
42.1717425857,-90.5742293965,19097,"Jackson County, Iowa"
41.6860388529,-93.0537645398,19099,"Jasper County, Iowa"
41.0317620678,-91.9488728782,19101,"Jefferson County, Iowa"
41.6715248584,-91.5881018852,19103,"Johnson County, Iowa"
42.1212370657,-91.131465421,19105,"Jones County, Iowa"
41.3364654753,-92.1786423155,19107,"Keokuk County, Iowa"
43.2041300298,-94.2067199306,19109,"Kossuth County, Iowa"
40.6419821705,-91.4792643967,19111,"Lee County, Iowa"
42.0789535271,-91.5990228598,19113,"Linn County, Iowa"
41.2185070628,-91.2596183012,19115,"Louisa County, Iowa"
41.0293737922,-93.3277206567,19117,"Lucas County, Iowa"
43.3804969625,-96.2102923903,19119,"Lyon County, Iowa"
41.3307142217,-94.0155619459,19121,"Madison County, Iowa"
41.3352034594,-92.6409093578,19123,"Mahaska County, Iowa"
41.3344518776,-93.0994371546,19125,"Marion County, Iowa"
42.0358492263,-92.9987713463,19127,"Marshall County, Iowa"
41.0334522634,-95.621326718,19129,"Mills County, Iowa"
43.3564123717,-92.7890314515,19131,"Mitchell County, Iowa"
42.0516662494,-95.9599234782,19133,"Monona County, Iowa"
41.0297829981,-92.8689876816,19135,"Monroe County, Iowa"
41.0301399961,-95.1563757716,19137,"Montgomery County, Iowa"
41.4839220534,-91.1127562492,19139,"Muscatine County, Iowa"
43.0837526517,-95.6248783386,19141,"O'Brien County, Iowa"
43.3785703546,-95.6236852015,19143,"Osceola County, Iowa"
40.7391440172,-95.1501748646,19145,"Page County, Iowa"
43.0820642869,-94.6781370701,19147,"Palo Alto County, Iowa"
42.7378473183,-96.2140273941,19149,"Plymouth County, Iowa"
42.7341351105,-94.6787466122,19151,"Pocahontas County, Iowa"
41.6855048252,-93.5735335401,19153,"Polk County, Iowa"
41.3366123482,-95.542393077,19155,"Pottawattamie County, Iowa"
41.6864421928,-92.531468397,19157,"Poweshiek County, Iowa"
40.7352022993,-94.2439719124,19159,"Ringgold County, Iowa"
42.3862603643,-95.1053945569,19161,"Sac County, Iowa"
41.6370978319,-90.6232428034,19163,"Scott County, Iowa"
41.6850925934,-95.31021134,19165,"Shelby County, Iowa"
43.082617377,-96.1778828448,19167,"Sioux County, Iowa"
42.0362414924,-93.4650447654,19169,"Story County, Iowa"
42.0798117536,-92.5325425886,19171,"Tama County, Iowa"
40.7374323606,-94.6964147623,19173,"Taylor County, Iowa"
41.0277303995,-94.2423791547,19175,"Union County, Iowa"
40.7532343253,-91.9499782974,19177,"Van Buren County, Iowa"
41.0305845373,-92.4094498846,19179,"Wapello County, Iowa"
41.334373461,-93.5613593647,19181,"Warren County, Iowa"
41.3356001857,-91.7178701959,19183,"Washington County, Iowa"
40.7394701918,-93.3273638708,19185,"Wayne County, Iowa"
42.4279491681,-94.1817743675,19187,"Webster County, Iowa"
43.3775677756,-93.7341954719,19189,"Winnebago County, Iowa"
43.2906788284,-91.8437036051,19191,"Winneshiek County, Iowa"
42.3897291621,-96.0447949019,19193,"Woodbury County, Iowa"
43.3773984485,-93.2608475497,19195,"Worth County, Iowa"
42.7331189884,-93.7351436616,19197,"Wright County, Iowa"
37.8857349436,-95.3013889295,20001,"Allen County, Kansas"
38.2142048256,-95.2933285252,20003,"Anderson County, Kansas"
39.5317400033,-95.3134446486,20005,"Atchison County, Kansas"
37.2288385526,-98.684790626,20007,"Barber County, Kansas"
38.4789639679,-98.756464293,20009,"Barton County, Kansas"
37.8552256175,-94.8492968396,20011,"Bourbon County, Kansas"
39.8264989183,-95.5642196557,20013,"Brown County, Kansas"
37.7812707517,-96.8390654617,20015,"Butler County, Kansas"
38.3020458533,-96.593928638,20017,"Chase County, Kansas"
37.1500572155,-96.2453782628,20019,"Chautauqua County, Kansas"
37.1693060628,-94.8462689731,20021,"Cherokee County, Kansas"
39.7858693359,-101.731104218,20023,"Cheyenne County, Kansas"
37.2355230437,-99.8203076918,20025,"Clark County, Kansas"
39.3497164186,-97.1651722307,20027,"Clay County, Kansas"
39.4802974375,-97.6492819059,20029,"Cloud County, Kansas"
38.2368379381,-95.7341117812,20031,"Coffey County, Kansas"
37.1912804013,-99.2718714746,20033,"Comanche County, Kansas"
37.2377526609,-96.8374891769,20035,"Cowley County, Kansas"
37.5073151069,-94.8518113711,20037,"Crawford County, Kansas"
39.7847564917,-100.459899544,20039,"Decatur County, Kansas"
38.8665005829,-97.152702787,20041,"Dickinson County, Kansas"
39.7880806129,-95.1467942431,20043,"Doniphan County, Kansas"
38.8846594528,-95.2926063049,20045,"Douglas County, Kansas"
37.887648789,-99.3121708301,20047,"Edwards County, Kansas"
37.4536881105,-96.2440866545,20049,"Elk County, Kansas"
38.9147512529,-99.3172316232,20051,"Ellis County, Kansas"
38.696627674,-98.204730294,20053,"Ellsworth County, Kansas"
38.0443048231,-100.736990786,20055,"Finney County, Kansas"
37.6917036301,-99.8879423784,20057,"Ford County, Kansas"
38.5645174515,-95.2859482396,20059,"Franklin County, Kansas"
39.0023855083,-96.7525021968,20061,"Geary County, Kansas"
38.9160955531,-100.48290474,20063,"Gove County, Kansas"
39.349716037,-99.8832526271,20065,"Graham County, Kansas"
37.5621932698,-101.308021268,20067,"Grant County, Kansas"
37.7381978567,-100.437862948,20069,"Gray County, Kansas"
38.4805374528,-101.805968435,20071,"Greeley County, Kansas"
37.8777875638,-96.2326356698,20073,"Greenwood County, Kansas"
37.9991525438,-101.791256465,20075,"Hamilton County, Kansas"
37.191604867,-98.0754955835,20077,"Harper County, Kansas"
38.0432184802,-97.4272714417,20079,"Harvey County, Kansas"
37.5622507408,-100.871191808,20081,"Haskell County, Kansas"
38.0874838474,-99.897935995,20083,"Hodgeman County, Kansas"
39.416820119,-95.793663658,20085,"Jackson County, Kansas"
39.2357647667,-95.383448733,20087,"Jefferson County, Kansas"
39.7847320849,-98.2183408742,20089,"Jewell County, Kansas"
38.8837685125,-94.8222610425,20091,"Johnson County, Kansas"
38.00019653,-101.31986081,20093,"Kearny County, Kansas"
37.5588848204,-98.1363325923,20095,"Kingman County, Kansas"
37.5582639151,-99.2860476017,20097,"Kiowa County, Kansas"
37.1913273481,-95.297576142,20099,"Labette County, Kansas"
38.4813047182,-100.466398449,20101,"Lane County, Kansas"
39.1993345198,-95.0379114409,20103,"Leavenworth County, Kansas"
39.0453280683,-98.2076985187,20105,"Lincoln County, Kansas"
38.2122718972,-94.8429319755,20107,"Linn County, Kansas"
38.9173365456,-101.148391114,20109,"Logan County, Kansas"
38.4561871377,-96.1526397502,20111,"Lyon County, Kansas"
38.3916666453,-97.6480798696,20113,"McPherson County, Kansas"
38.3588724365,-97.0968903589,20115,"Marion County, Kansas"
39.7836260546,-96.5229367542,20117,"Marshall County, Kansas"
37.2381964095,-100.36618026,20119,"Meade County, Kansas"
38.5635832261,-94.838056975,20121,"Miami County, Kansas"
39.3932659263,-98.2093648177,20123,"Mitchell County, Kansas"
37.1925238004,-95.7428780841,20125,"Montgomery County, Kansas"
38.6874292494,-96.6498496136,20127,"Morris County, Kansas"
37.1913959707,-101.799252231,20129,"Morton County, Kansas"
39.7834476063,-96.0141016624,20131,"Nemaha County, Kansas"
37.55848541,-95.3067923129,20133,"Neosho County, Kansas"
38.4794187776,-99.9161797856,20135,"Ness County, Kansas"
39.7843853292,-99.9034768772,20137,"Norton County, Kansas"
38.6523289215,-95.726945141,20139,"Osage County, Kansas"
39.3503339996,-98.7679898039,20141,"Osborne County, Kansas"
39.132537495,-97.6502157692,20143,"Ottawa County, Kansas"
38.181330775,-99.2367293489,20145,"Pawnee County, Kansas"
39.7845831125,-99.347022123,20147,"Phillips County, Kansas"
39.3790027809,-96.3423649942,20149,"Pottawatomie County, Kansas"
37.6477353374,-98.7395957092,20151,"Pratt County, Kansas"
39.785240911,-101.075705109,20153,"Rawlins County, Kansas"
37.9529528516,-98.0860066564,20155,"Reno County, Kansas"
39.8277963216,-97.6506227728,20157,"Republic County, Kansas"
38.3471428738,-98.2010299558,20159,"Rice County, Kansas"
39.2965532011,-96.7351769755,20161,"Riley County, Kansas"
39.3502287543,-99.3250571176,20163,"Rooks County, Kansas"
38.5231613136,-99.3092409497,20165,"Rush County, Kansas"
38.9147788411,-98.7623510222,20167,"Russell County, Kansas"
38.7838065024,-97.6499306446,20169,"Saline County, Kansas"
38.482169359,-100.906858956,20171,"Scott County, Kansas"
37.6847615589,-97.4609686791,20173,"Sedgwick County, Kansas"
37.1933028033,-100.851287248,20175,"Seward County, Kansas"
39.0415137637,-95.7565342577,20177,"Shawnee County, Kansas"
39.3503577669,-100.441832361,20179,"Sheridan County, Kansas"
39.3514336872,-101.719980701,20181,"Sherman County, Kansas"
39.785156359,-98.7854727927,20183,"Smith County, Kansas"
38.0309985368,-98.7174450154,20185,"Stafford County, Kansas"
37.5630613882,-101.784183191,20187,"Stanton County, Kansas"
37.1923179509,-101.312046958,20189,"Stevens County, Kansas"
37.2372753377,-97.4765502094,20191,"Sumner County, Kansas"
39.3509686024,-101.055531285,20193,"Thomas County, Kansas"
38.9143249144,-99.8727358362,20195,"Trego County, Kansas"
38.9532912889,-96.2050045391,20197,"Wabaunsee County, Kansas"
38.9166611398,-101.763574005,20199,"Wallace County, Kansas"
39.7842012909,-97.0875435237,20201,"Washington County, Kansas"
38.4820845404,-101.34735565,20203,"Wichita County, Kansas"
37.5592414881,-95.7433888048,20205,"Wilson County, Kansas"
37.886670206,-95.7401677072,20207,"Woodson County, Kansas"
39.1146453374,-94.7644784215,20209,"Wyandotte County, Kansas"
37.1041534526,-85.2806497629,21001,"Adair County, Kentucky"
36.7513165534,-86.1904186693,21003,"Allen County, Kentucky"
38.0039134141,-84.9910045711,21005,"Anderson County, Kentucky"
37.0584319295,-88.9993411296,21007,"Ballard County, Kentucky"
36.9655811681,-85.9336633247,21009,"Barren County, Kentucky"
38.1449736906,-83.74266722,21011,"Bath County, Kentucky"
36.7306482485,-83.6740950601,21013,"Bell County, Kentucky"
38.969864478,-84.727848116,21015,"Boone County, Kentucky"
38.2067299514,-84.2171399549,21017,"Bourbon County, Kentucky"
38.3595724655,-82.6877258112,21019,"Boyd County, Kentucky"
37.6243602285,-84.8668203815,21021,"Boyle County, Kentucky"
38.688812974,-84.0901906655,21023,"Bracken County, Kentucky"
37.5216171391,-83.3240853027,21025,"Breathitt County, Kentucky"
37.7732676848,-86.4292775361,21027,"Breckinridge County, Kentucky"
37.9700757707,-85.6958570326,21029,"Bullitt County, Kentucky"
37.2072808133,-86.68175556,21031,"Butler County, Kentucky"
37.1453332323,-87.8679057735,21033,"Caldwell County, Kentucky"
36.6211012796,-88.2722011175,21035,"Calloway County, Kentucky"
38.9464767816,-84.3796958206,21037,"Campbell County, Kentucky"
36.8532163803,-88.9710587868,21039,"Carlisle County, Kentucky"
38.6678584122,-85.123590032,21041,"Carroll County, Kentucky"
38.318172839,-83.0495338272,21043,"Carter County, Kentucky"
37.3222824489,-84.9283681524,21045,"Casey County, Kentucky"
36.8941807353,-87.4903805625,21047,"Christian County, Kentucky"
37.9708518682,-84.1473994082,21049,"Clark County, Kentucky"
37.1596975589,-83.714662683,21051,"Clay County, Kentucky"
36.7274816255,-85.1360135602,21053,"Clinton County, Kentucky"
37.3527152683,-88.0972226536,21055,"Crittenden County, Kentucky"
36.7865296888,-85.3884485912,21057,"Cumberland County, Kentucky"
37.731772508,-87.0872269242,21059,"Daviess County, Kentucky"
37.2088402055,-86.2386201495,21061,"Edmonson County, Kentucky"
38.1178916805,-83.0976163428,21063,"Elliott County, Kentucky"
37.6924814699,-83.9643302311,21065,"Estill County, Kentucky"
38.0423302608,-84.4587221937,21067,"Fayette County, Kentucky"
38.3701068106,-83.6966440772,21069,"Fleming County, Kentucky"
37.5571085124,-82.7457041434,21071,"Floyd County, Kentucky"
38.2391477444,-84.8770681668,21073,"Franklin County, Kentucky"
36.5540721406,-89.1875965868,21075,"Fulton County, Kentucky"
38.7568746647,-84.8593123857,21077,"Gallatin County, Kentucky"
37.6395779036,-84.5376342293,21079,"Garrard County, Kentucky"
38.6488155619,-84.6246133807,21081,"Grant County, Kentucky"
36.7231381944,-88.6512057677,21083,"Graves County, Kentucky"
37.4608189464,-86.3438765333,21085,"Grayson County, Kentucky"
37.2641094188,-85.5531056748,21087,"Green County, Kentucky"
38.5456646906,-82.9222922454,21089,"Greenup County, Kentucky"
37.8415087294,-86.7779252067,21091,"Hancock County, Kentucky"
37.6979246033,-85.9633719015,21093,"Hardin County, Kentucky"
36.8569745004,-83.2179510399,21095,"Harlan County, Kentucky"
38.4418035091,-84.3313958343,21097,"Harrison County, Kentucky"
37.29992674,-85.8847094016,21099,"Hart County, Kentucky"
37.7958423573,-87.5731516422,21101,"Henderson County, Kentucky"
38.448468036,-85.1189299735,21103,"Henry County, Kentucky"
36.6781704977,-88.9762156953,21105,"Hickman County, Kentucky"
37.3088201365,-87.540842137,21107,"Hopkins County, Kentucky"
37.4197763873,-84.0057660473,21109,"Jackson County, Kentucky"
38.1871910002,-85.6591577058,21111,"Jefferson County, Kentucky"
37.872051318,-84.5809372528,21113,"Jessamine County, Kentucky"
37.8466393565,-82.8315397747,21115,"Johnson County, Kentucky"
38.9334528592,-84.5333168381,21117,"Kenton County, Kentucky"
37.3540523996,-82.9541313398,21119,"Knott County, Kentucky"
36.8906660574,-83.854045282,21121,"Knox County, Kentucky"
37.5457980664,-85.6979139347,21123,"Larue County, Kentucky"
37.1106705529,-84.11780032,21125,"Laurel County, Kentucky"
38.0678786159,-82.7347546613,21127,"Lawrence County, Kentucky"
37.5947979696,-83.7162777687,21129,"Lee County, Kentucky"
37.0940663146,-83.3811399511,21131,"Leslie County, Kentucky"
37.1211921397,-82.8552822542,21133,"Letcher County, Kentucky"
38.5315416285,-83.3780560683,21135,"Lewis County, Kentucky"
37.4553667663,-84.6608453633,21137,"Lincoln County, Kentucky"
37.2097032695,-88.3538137781,21139,"Livingston County, Kentucky"
36.8596987837,-86.8789382363,21141,"Logan County, Kentucky"
37.0191301368,-88.0832815032,21143,"Lyon County, Kentucky"
37.0540793189,-88.71271926,21145,"McCracken County, Kentucky"
36.7371415587,-84.4841745377,21147,"McCreary County, Kentucky"
37.5291899516,-87.2636042463,21149,"McLean County, Kentucky"
37.7201835062,-84.2779980048,21151,"Madison County, Kentucky"
37.7064741502,-83.0649145355,21153,"Magoffin County, Kentucky"
37.5525344711,-85.2696313766,21155,"Marion County, Kentucky"
36.8834465874,-88.3293805253,21157,"Marshall County, Kentucky"
37.8015772072,-82.5132925147,21159,"Martin County, Kentucky"
38.5951729912,-83.8242451537,21161,"Mason County, Kentucky"
37.9698391666,-86.2171786433,21163,"Meade County, Kentucky"
37.9413779683,-83.5988719199,21165,"Menifee County, Kentucky"
37.8110307874,-84.8744366862,21167,"Mercer County, Kentucky"
36.9905417852,-85.6292510918,21169,"Metcalfe County, Kentucky"
36.712180279,-85.7165195846,21171,"Monroe County, Kentucky"
38.0335228018,-83.913088975,21173,"Montgomery County, Kentucky"
37.9222809093,-83.2588931268,21175,"Morgan County, Kentucky"
37.2157922672,-87.142041664,21177,"Muhlenberg County, Kentucky"
37.805131267,-85.4659885855,21179,"Nelson County, Kentucky"
38.3355978163,-84.0153305006,21181,"Nicholas County, Kentucky"
37.478191684,-86.8488901965,21183,"Ohio County, Kentucky"
38.3994422236,-85.4483655316,21185,"Oldham County, Kentucky"
38.5196362585,-84.8281098255,21187,"Owen County, Kentucky"
37.4192050035,-83.6831118762,21189,"Owsley County, Kentucky"
38.6956276543,-84.3602721797,21191,"Pendleton County, Kentucky"
37.2442933233,-83.2214816028,21193,"Perry County, Kentucky"
37.4690483094,-82.3958631537,21195,"Pike County, Kentucky"
37.8311453235,-83.823774583,21197,"Powell County, Kentucky"
37.1039268916,-84.5771762961,21199,"Pulaski County, Kentucky"
38.5188144389,-84.0520241975,21201,"Robertson County, Kentucky"
37.3651781719,-84.3159414648,21203,"Rockcastle County, Kentucky"
38.1962558627,-83.4210754055,21205,"Rowan County, Kentucky"
36.991034312,-85.0586875538,21207,"Russell County, Kentucky"
38.291547316,-84.5839338937,21209,"Scott County, Kentucky"
38.2154382436,-85.1947770123,21211,"Shelby County, Kentucky"
36.7419423399,-86.582320534,21213,"Simpson County, Kentucky"
38.0325101344,-85.3278488189,21215,"Spencer County, Kentucky"
37.3664545067,-85.3278346717,21217,"Taylor County, Kentucky"
36.8355562279,-87.1791532892,21219,"Todd County, Kentucky"
36.8063197395,-87.8733713765,21221,"Trigg County, Kentucky"
38.6130327476,-85.3375681071,21223,"Trimble County, Kentucky"
37.6584480026,-87.9453835494,21225,"Union County, Kentucky"
36.9935767676,-86.4237993498,21227,"Warren County, Kentucky"
37.753378564,-85.1747465425,21229,"Washington County, Kentucky"
36.8012652397,-84.828631199,21231,"Wayne County, Kentucky"
37.5184174771,-87.6831570963,21233,"Webster County, Kentucky"
36.7580732628,-84.145177727,21235,"Whitley County, Kentucky"
37.7393195914,-83.4931751504,21237,"Wolfe County, Kentucky"
38.0423908286,-84.7436031459,21239,"Woodford County, Kentucky"
30.2905333588,-92.4119791169,22001,"Acadia Parish, Louisiana"
30.6528705338,-92.8278792297,22003,"Allen Parish, Louisiana"
30.2035444978,-90.9112912896,22005,"Ascension Parish, Louisiana"
29.9007722759,-91.0625868595,22007,"Assumption Parish, Louisiana"
31.07624372,-92.001376741,22009,"Avoyelles Parish, Louisiana"
30.6484687349,-93.343338993,22011,"Beauregard Parish, Louisiana"
32.3472191955,-93.0559517637,22013,"Bienville Parish, Louisiana"
32.6789310276,-93.6050459212,22015,"Bossier Parish, Louisiana"
32.5801941764,-93.8823968489,22017,"Caddo Parish, Louisiana"
30.2292239003,-93.3579451616,22019,"Calcasieu Parish, Louisiana"
32.0922715486,-92.1166058761,22021,"Caldwell Parish, Louisiana"
29.8468719706,-93.1988964755,22023,"Cameron Parish, Louisiana"
31.6661684568,-91.8470716058,22025,"Catahoula Parish, Louisiana"
32.822693435,-92.9957332424,22027,"Claiborne Parish, Louisiana"
31.445835936,-91.6400549956,22029,"Concordia Parish, Louisiana"
32.0554496236,-93.7372773737,22031,"De Soto Parish, Louisiana"
30.5382395947,-91.0956166217,22033,"East Baton Rouge Parish, Louisiana"
32.7325534614,-91.2350651111,22035,"East Carroll Parish, Louisiana"
30.8450707709,-91.0455350736,22037,"East Feliciana Parish, Louisiana"
30.7289364182,-92.4059042007,22039,"Evangeline Parish, Louisiana"
32.1332163406,-91.6737652244,22041,"Franklin Parish, Louisiana"
31.599703679,-92.5595204513,22043,"Grant Parish, Louisiana"
29.7564998487,-91.7630555512,22045,"Iberia Parish, Louisiana"
30.2584988738,-91.3493631932,22047,"Iberville Parish, Louisiana"
32.3020349252,-92.5577401117,22049,"Jackson Parish, Louisiana"
29.6774585804,-90.0977653992,22051,"Jefferson Parish, Louisiana"
30.2677218795,-92.814120915,22053,"Jefferson Davis Parish, Louisiana"
30.2067729534,-92.0638821244,22055,"Lafayette Parish, Louisiana"
29.5003322407,-90.402594527,22057,"Lafourche Parish, Louisiana"
31.6767316888,-92.1604365033,22059,"LaSalle Parish, Louisiana"
32.6016373737,-92.6648152839,22061,"Lincoln Parish, Louisiana"
30.4401362441,-90.7279074417,22063,"Livingston Parish, Louisiana"
32.3644009947,-91.2425796995,22065,"Madison Parish, Louisiana"
32.8202181268,-91.801797046,22067,"Morehouse Parish, Louisiana"
31.7235401557,-93.0962433857,22069,"Natchitoches Parish, Louisiana"
30.0686436991,-89.928127921,22071,"Orleans Parish, Louisiana"
32.4783131468,-92.1548701323,22073,"Ouachita Parish, Louisiana"
29.3806620653,-89.4819150635,22075,"Plaquemines Parish, Louisiana"
30.7093956955,-91.6007888442,22077,"Pointe Coupee Parish, Louisiana"
31.1986202778,-92.5331996257,22079,"Rapides Parish, Louisiana"
32.0931465237,-93.3398791457,22081,"Red River Parish, Louisiana"
32.4177916678,-91.7634818429,22083,"Richland Parish, Louisiana"
31.5640129586,-93.5546968685,22085,"Sabine Parish, Louisiana"
29.9047257308,-89.3041273649,22087,"St. Bernard Parish, Louisiana"
29.905528266,-90.3582204731,22089,"St. Charles Parish, Louisiana"
30.8219752667,-90.7103202756,22091,"St. Helena Parish, Louisiana"
30.0262964539,-90.7963157853,22093,"St. James Parish, Louisiana"
30.1264602387,-90.4708835924,22095,"St. John the Baptist Parish, Louisiana"
30.5988510952,-92.0058568609,22097,"St. Landry Parish, Louisiana"
30.1290721039,-91.6082975068,22099,"St. Martin Parish, Louisiana"
29.6346233871,-91.4729263457,22101,"St. Mary Parish, Louisiana"
30.4078429457,-89.9546332243,22103,"St. Tammany Parish, Louisiana"
30.6266523214,-90.4056805267,22105,"Tangipahoa Parish, Louisiana"
32.0016607751,-91.3400729965,22107,"Tensas Parish, Louisiana"
29.3374418892,-90.8376399064,22109,"Terrebonne Parish, Louisiana"
32.8318884986,-92.3748055749,22111,"Union Parish, Louisiana"
29.8093893174,-92.304282947,22113,"Vermilion Parish, Louisiana"
31.1082936995,-93.1841466986,22115,"Vernon Parish, Louisiana"
30.8533433125,-90.0405268831,22117,"Washington Parish, Louisiana"
32.7134544164,-93.3349833098,22119,"Webster Parish, Louisiana"
30.4634147938,-91.3127466677,22121,"West Baton Rouge Parish, Louisiana"
32.7885605367,-91.4567382424,22123,"West Carroll Parish, Louisiana"
30.8797727288,-91.4200286829,22125,"West Feliciana Parish, Louisiana"
31.944249197,-92.6367652262,22127,"Winn Parish, Louisiana"
44.1658484298,-70.206444997,23001,"Androscoggin County, Maine"
46.6588181292,-68.5988785527,23003,"Aroostook County, Maine"
43.8060821062,-70.3302006275,23005,"Cumberland County, Maine"
44.9741566636,-70.4440737272,23007,"Franklin County, Maine"
44.5628867649,-68.3682079676,23009,"Hancock County, Maine"
44.4091601365,-69.767264396,23011,"Kennebec County, Maine"
44.0272987421,-69.015547485,23013,"Knox County, Maine"
43.997787332,-69.5257592569,23015,"Lincoln County, Maine"
44.499782046,-70.7565745217,23017,"Oxford County, Maine"
45.4005123213,-68.6494281289,23019,"Penobscot County, Maine"
45.8373643273,-69.2845234425,23021,"Piscataquis County, Maine"
43.9117268938,-69.8393089562,23023,"Sagadahoc County, Maine"
45.5138551635,-69.9588160836,23025,"Somerset County, Maine"
44.4852469436,-69.1218807819,23027,"Waldo County, Maine"
44.9694591011,-67.6090594873,23029,"Washington County, Maine"
43.4292261998,-70.6701460671,23031,"York County, Maine"
39.6214732187,-78.6975385506,24001,"Allegany County, Maryland"
38.9941571642,-76.5675970619,24003,"Anne Arundel County, Maryland"
39.443072852,-76.6163229502,24005,"Baltimore County, Maryland"
38.5347120041,-76.5305644689,24009,"Calvert County, Maryland"
38.8717218127,-75.8316009642,24011,"Caroline County, Maryland"
39.5628541642,-77.0225227247,24013,"Carroll County, Maryland"
39.5624202546,-75.9481069728,24015,"Cecil County, Maryland"
38.4736812339,-77.0134840998,24017,"Charles County, Maryland"
38.4226080428,-76.0833253109,24019,"Dorchester County, Maryland"
39.4722125305,-77.3979843347,24021,"Frederick County, Maryland"
39.5288947088,-79.2729932831,24023,"Garrett County, Maryland"
39.5364361834,-76.2988753861,24025,"Harford County, Maryland"
39.2507169303,-76.9311943444,24027,"Howard County, Maryland"
39.2356038944,-76.0958206019,24029,"Kent County, Maryland"
39.1363621482,-77.2042373226,24031,"Montgomery County, Maryland"
38.8295152487,-76.8472924091,24033,"Prince George's County, Maryland"
39.0376284098,-76.0850360056,24035,"Queen Anne's County, Maryland"
38.2158624014,-76.5290606633,24037,"St. Mary's County, Maryland"
38.080066116,-75.8534705783,24039,"Somerset County, Maryland"
38.7491001783,-76.1786170603,24041,"Talbot County, Maryland"
39.6036746811,-77.8139806631,24043,"Washington County, Maryland"
38.3694102763,-75.6315310797,24045,"Wicomico County, Maryland"
38.2164999843,-75.2966708247,24047,"Worcester County, Maryland"
39.3009797143,-76.610646905,24510,"Baltimore City, Maryland"
41.7734492735,-70.2381374923,25001,"Barnstable County, Massachusetts"
42.3706766098,-73.2064122879,25003,"Berkshire County, Massachusetts"
41.7570882119,-71.0885008559,25005,"Bristol County, Massachusetts"
41.3887747357,-70.6987715777,25007,"Dukes County, Massachusetts"
42.638915376,-70.8679199556,25009,"Essex County, Massachusetts"
42.5831156958,-72.5918576846,25011,"Franklin County, Massachusetts"
42.1351123414,-72.6316491133,25013,"Hampden County, Massachusetts"
42.3401529673,-72.6637844853,25015,"Hampshire County, Massachusetts"
42.48553813,-71.3917424712,25017,"Middlesex County, Massachusetts"
41.3012406125,-70.12811317,25019,"Nantucket County, Massachusetts"
42.1709806276,-71.1838291807,25021,"Norfolk County, Massachusetts"
41.9874357661,-70.7370759268,25023,"Plymouth County, Massachusetts"
42.3486893925,-70.9856096697,25025,"Suffolk County, Massachusetts"
42.3513950817,-71.9077266261,25027,"Worcester County, Massachusetts"
44.6836233781,-83.1290075152,26001,"Alcona County, Michigan"
46.9482692108,-86.5721601717,26003,"Alger County, Michigan"
42.5936732732,-86.2917651855,26005,"Allegan County, Michigan"
45.0311075069,-83.1652010912,26007,"Alpena County, Michigan"
45.0073838126,-85.1758221578,26009,"Antrim County, Michigan"
44.0428854726,-83.7472418424,26011,"Arenac County, Michigan"
46.6997094485,-88.3521803449,26013,"Baraga County, Michigan"
42.5950284307,-85.3089680839,26015,"Barry County, Michigan"
43.7213655935,-83.9418350885,26017,"Bay County, Michigan"
44.6445874689,-86.3006262039,26019,"Benzie County, Michigan"
41.9957776876,-86.6854211599,26021,"Berrien County, Michigan"
41.9161186535,-85.0590443604,26023,"Branch County, Michigan"
42.2465394718,-85.0055834874,26025,"Calhoun County, Michigan"
41.9154003329,-85.9934577475,26027,"Cass County, Michigan"
45.5024976764,-85.373250216,26029,"Charlevoix County, Michigan"
45.4729404291,-84.492064415,26031,"Cheboygan County, Michigan"
46.3281784324,-84.5293679243,26033,"Chippewa County, Michigan"
43.9878918655,-84.8478607548,26035,"Clare County, Michigan"
42.9436523662,-84.6015165533,26037,"Clinton County, Michigan"
44.6836111689,-84.6103371078,26039,"Crawford County, Michigan"
45.7916364577,-86.8705966508,26041,"Delta County, Michigan"
46.0092394572,-87.8702584456,26043,"Dickinson County, Michigan"
42.596069775,-84.8383148406,26045,"Eaton County, Michigan"
45.5875424692,-84.9814699602,26047,"Emmet County, Michigan"
43.0217229031,-83.7067110419,26049,"Genesee County, Michigan"
43.9906739447,-84.3882463136,26051,"Gladwin County, Michigan"
46.4954898595,-89.7954717926,26053,"Gogebic County, Michigan"
44.7162390791,-85.5522032462,26055,"Grand Traverse County, Michigan"
43.2927326789,-84.6049110538,26057,"Gratiot County, Michigan"
41.8877674933,-84.5929278019,26059,"Hillsdale County, Michigan"
46.9915439408,-88.6520579518,26061,"Houghton County, Michigan"
43.9100683718,-82.8555082084,26063,"Huron County, Michigan"
42.5970991967,-84.3735369769,26065,"Ingham County, Michigan"
42.9450938315,-85.0746031181,26067,"Ionia County, Michigan"
44.3370929481,-83.0853006647,26069,"Iosco County, Michigan"
46.2086670875,-88.5305528694,26071,"Iron County, Michigan"
43.6406015599,-84.8467965535,26073,"Isabella County, Michigan"
42.2484873981,-84.423437303,26075,"Jackson County, Michigan"
42.2454540023,-85.5311845383,26077,"Kalamazoo County, Michigan"
44.6846764139,-85.0902500996,26079,"Kalkaska County, Michigan"
43.0321563061,-85.549296283,26081,"Kent County, Michigan"
47.7152823036,-88.2521508057,26083,"Keweenaw County, Michigan"
43.9900669341,-85.8016452398,26085,"Lake County, Michigan"
43.0901474299,-83.2217837238,26087,"Lapeer County, Michigan"
45.151770859,-86.0384960523,26089,"Leelanau County, Michigan"
41.8950837577,-84.0663667481,26091,"Lenawee County, Michigan"
42.6029174357,-83.9115277453,26093,"Livingston County, Michigan"
46.7140170601,-85.564118869,26095,"Luce County, Michigan"
45.9989328531,-85.0094165914,26097,"Mackinac County, Michigan"
42.6727950993,-82.9101752594,26099,"Macomb County, Michigan"
44.3428004034,-86.3641128583,26101,"Manistee County, Michigan"
46.6628779661,-87.5735241034,26103,"Marquette County, Michigan"
43.99606769,-86.5450922685,26105,"Mason County, Michigan"
43.6407681919,-85.3246335487,26107,"Mecosta County, Michigan"
45.5251213571,-87.5096840021,26109,"Menominee County, Michigan"
43.6468567079,-84.3881091147,26111,"Midland County, Michigan"
44.3373203725,-85.0946817376,26113,"Missaukee County, Michigan"
41.9213775211,-83.4942863604,26115,"Monroe County, Michigan"
43.3109397092,-85.15248111,26117,"Montcalm County, Michigan"
45.0275448913,-84.127204086,26119,"Montmorency County, Michigan"
43.2899298863,-86.5352341115,26121,"Muskegon County, Michigan"
43.5541675519,-85.8009172937,26123,"Newaygo County, Michigan"
42.6603998737,-83.385817604,26125,"Oakland County, Michigan"
43.6446171312,-86.5817719968,26127,"Oceana County, Michigan"
44.3349392585,-84.1264136573,26129,"Ogemaw County, Michigan"
47.0221845765,-89.4347315443,26131,"Ontonagon County, Michigan"
43.9898287022,-85.3252875939,26133,"Osceola County, Michigan"
44.6817581821,-84.1297714192,26135,"Oscoda County, Michigan"
45.0214343278,-84.5989931681,26137,"Otsego County, Michigan"
42.948534903,-86.4218821702,26139,"Ottawa County, Michigan"
45.4493130951,-83.5277564528,26141,"Presque Isle County, Michigan"
44.335608598,-84.6115999116,26143,"Roscommon County, Michigan"
43.3350287366,-84.0531870389,26145,"Saginaw County, Michigan"
42.9311219743,-82.6643677239,26147,"St. Clair County, Michigan"
41.9144142466,-85.5277446789,26149,"St. Joseph County, Michigan"
43.4433116085,-82.6457538571,26151,"Sanilac County, Michigan"
46.0424798151,-86.1772944904,26153,"Schoolcraft County, Michigan"
42.9537338684,-84.1467311037,26155,"Shiawassee County, Michigan"
43.4913425333,-83.4398685744,26157,"Tuscola County, Michigan"
42.285105582,-86.3064148915,26159,"Van Buren County, Michigan"
42.2532253491,-83.83877051,26161,"Washtenaw County, Michigan"
42.2847454761,-83.2611328686,26163,"Wayne County, Michigan"
44.3383668115,-85.5784138137,26165,"Wexford County, Michigan"
46.6082572906,-93.4154290883,27001,"Aitkin County, Minnesota"
45.2732429118,-93.2464685787,27003,"Anoka County, Minnesota"
46.9346483657,-95.673923543,27005,"Becker County, Minnesota"
47.9737829027,-94.9376544511,27007,"Beltrami County, Minnesota"
45.6991358622,-93.9988297843,27009,"Benton County, Minnesota"
45.4260991444,-96.410918404,27011,"Big Stone County, Minnesota"
44.034587103,-94.0670290696,27013,"Blue Earth County, Minnesota"
44.2421397159,-94.7275713188,27015,"Brown County, Minnesota"
46.592401392,-92.6770526205,27017,"Carlton County, Minnesota"
44.82075943,-93.8025859879,27019,"Carver County, Minnesota"
46.9496014257,-94.3253505738,27021,"Cass County, Minnesota"
45.0223609495,-95.5667047202,27023,"Chippewa County, Minnesota"
45.5024730826,-92.9083421514,27025,"Chisago County, Minnesota"
46.8923435535,-96.4906494764,27027,"Clay County, Minnesota"
47.5776534848,-95.3790237804,27029,"Clearwater County, Minnesota"
47.726661247,-90.3859738837,27031,"Cook County, Minnesota"
44.0071075264,-95.1811530449,27033,"Cottonwood County, Minnesota"
46.482373828,-94.0708780275,27035,"Crow Wing County, Minnesota"
44.6718744229,-93.0654245878,27037,"Dakota County, Minnesota"
44.0225894661,-92.8620540343,27039,"Dodge County, Minnesota"
45.9337163348,-95.453523681,27041,"Douglas County, Minnesota"
43.6739283199,-93.947999339,27043,"Faribault County, Minnesota"
43.6739971693,-92.0901672654,27045,"Fillmore County, Minnesota"
43.6738441803,-93.3488158578,27047,"Freeborn County, Minnesota"
44.4096825746,-92.7229029989,27049,"Goodhue County, Minnesota"
45.934046167,-96.0121840981,27051,"Grant County, Minnesota"
45.0045756364,-93.4768864968,27053,"Hennepin County, Minnesota"
43.6714440477,-91.4928319425,27055,"Houston County, Minnesota"
47.108629802,-94.9166206034,27057,"Hubbard County, Minnesota"
45.5614793413,-93.2951672181,27059,"Isanti County, Minnesota"
47.5095252347,-93.6320085311,27061,"Itasca County, Minnesota"
43.6741733017,-95.1541129519,27063,"Jackson County, Minnesota"
45.9452167902,-93.2934250568,27065,"Kanabec County, Minnesota"
45.1523823451,-95.0047424624,27067,"Kandiyohi County, Minnesota"
48.7766295653,-96.7828440349,27069,"Kittson County, Minnesota"
48.2452683995,-93.7833663013,27071,"Koochiching County, Minnesota"
44.995486929,-96.1734786585,27073,"Lac qui Parle County, Minnesota"
47.5231709536,-91.4088486044,27075,"Lake County, Minnesota"
48.771256978,-94.9045482536,27077,"Lake of the Woods County, Minnesota"
44.3714339354,-93.7300728963,27079,"Le Sueur County, Minnesota"
44.4125964168,-96.2670873079,27081,"Lincoln County, Minnesota"
44.4134915893,-95.8389749015,27083,"Lyon County, Minnesota"
44.8235439383,-94.2724202106,27085,"McLeod County, Minnesota"
47.3252360192,-95.8090496343,27087,"Mahnomen County, Minnesota"
48.3581259624,-96.3684743899,27089,"Marshall County, Minnesota"
43.6743620902,-94.551070329,27091,"Martin County, Minnesota"
45.1231152442,-94.5273094656,27093,"Meeker County, Minnesota"
45.9380407246,-93.630083459,27095,"Mille Lacs County, Minnesota"
46.0126176925,-94.2684153059,27097,"Morrison County, Minnesota"
43.6714700417,-92.7525135871,27099,"Mower County, Minnesota"
44.0221214974,-95.7632758339,27101,"Murray County, Minnesota"
44.3498776053,-94.2473892814,27103,"Nicollet County, Minnesota"
43.6742397821,-95.7533863657,27105,"Nobles County, Minnesota"
47.3264761642,-96.4552777398,27107,"Norman County, Minnesota"
44.0037525074,-92.401770932,27109,"Olmsted County, Minnesota"
46.4087959622,-95.7080021514,27111,"Otter Tail County, Minnesota"
48.0662320513,-96.0366682912,27113,"Pennington County, Minnesota"
46.120767065,-92.7412705154,27115,"Pine County, Minnesota"
44.0229951536,-96.2586448321,27117,"Pipestone County, Minnesota"
47.773853549,-96.4018033447,27119,"Polk County, Minnesota"
45.5860205994,-95.4444821595,27121,"Pope County, Minnesota"
45.0170541432,-93.099606274,27123,"Ramsey County, Minnesota"
47.8716944124,-96.0953033903,27125,"Red Lake County, Minnesota"
44.4036612077,-95.2538341808,27127,"Redwood County, Minnesota"
44.7268149012,-94.9471503059,27129,"Renville County, Minnesota"
44.3542643029,-93.2966783051,27131,"Rice County, Minnesota"
43.6746303972,-96.2532076471,27133,"Rock County, Minnesota"
48.7751394251,-95.8108171586,27135,"Roseau County, Minnesota"
47.589861371,-92.4614657054,27137,"St. Louis County, Minnesota"
44.6484737252,-93.5358982367,27139,"Scott County, Minnesota"
45.4439531217,-93.7745948671,27141,"Sherburne County, Minnesota"
44.5794783729,-94.2321420772,27143,"Sibley County, Minnesota"
45.5521529589,-94.6130114109,27145,"Stearns County, Minnesota"
44.022343746,-93.2260411098,27147,"Steele County, Minnesota"
45.5861252834,-96.0003022919,27149,"Stevens County, Minnesota"
45.2827261064,-95.68142838,27151,"Swift County, Minnesota"
46.0706237641,-94.8975993632,27153,"Todd County, Minnesota"
45.7721844848,-96.4716413553,27155,"Traverse County, Minnesota"
44.2842861611,-92.2302602596,27157,"Wabasha County, Minnesota"
46.5857615606,-94.9694078336,27159,"Wadena County, Minnesota"
44.0221236545,-93.5872832229,27161,"Waseca County, Minnesota"
45.0387533824,-92.883969287,27163,"Washington County, Minnesota"
43.9784278928,-94.6140606084,27165,"Watonwan County, Minnesota"
46.3570765653,-96.4683496086,27167,"Wilkin County, Minnesota"
43.9868496601,-91.779129433,27169,"Winona County, Minnesota"
45.1739317274,-93.9630531168,27171,"Wright County, Minnesota"
44.7162497148,-95.8683593995,27173,"Yellow Medicine County, Minnesota"
31.482942855,-91.3534982605,28001,"Adams County, Mississippi"
34.8807714578,-88.5802645599,28003,"Alcorn County, Mississippi"
31.1743965268,-90.8044314871,28005,"Amite County, Mississippi"
33.0862934726,-89.5815415958,28007,"Attala County, Mississippi"
34.8172864604,-89.1884754842,28009,"Benton County, Mississippi"
33.7955389816,-90.8804009104,28011,"Bolivar County, Mississippi"
33.9364500127,-89.336445157,28013,"Calhoun County, Mississippi"
33.4485258506,-89.9201976988,28015,"Carroll County, Mississippi"
33.9207998598,-88.9478637891,28017,"Chickasaw County, Mississippi"
33.347307069,-89.2483811971,28019,"Choctaw County, Mississippi"
31.9736926021,-90.9118133348,28021,"Claiborne County, Mississippi"
32.0414016703,-88.6894044448,28023,"Clarke County, Mississippi"
33.6556666121,-88.7815761672,28025,"Clay County, Mississippi"
34.2291655931,-90.602687016,28027,"Coahoma County, Mississippi"
31.8692373987,-90.448798677,28029,"Copiah County, Mississippi"
31.6332182103,-89.5526288201,28031,"Covington County, Mississippi"
34.8753989481,-89.9917699831,28033,"DeSoto County, Mississippi"
31.1888694049,-89.2578597971,28035,"Forrest County, Mississippi"
31.477145332,-90.8978501232,28037,"Franklin County, Mississippi"
30.8626068236,-88.6440346093,28039,"George County, Mississippi"
31.2142247537,-88.6391629414,28041,"Greene County, Mississippi"
33.7699538621,-89.8020061532,28043,"Grenada County, Mississippi"
30.3937798122,-89.4745620917,28045,"Hancock County, Mississippi"
30.4160496685,-89.081642685,28047,"Harrison County, Mississippi"
32.2667019192,-90.4428211702,28049,"Hinds County, Mississippi"
33.1235144947,-90.0920506122,28051,"Holmes County, Mississippi"
33.12869729,-90.5266210224,28053,"Humphreys County, Mississippi"
32.7413905566,-90.9892124114,28055,"Issaquena County, Mississippi"
34.2799867489,-88.3613228409,28057,"Itawamba County, Mississippi"
30.4628875802,-88.6228415765,28059,"Jackson County, Mississippi"
32.0191127391,-89.1188598215,28061,"Jasper County, Mississippi"
31.7342053896,-91.0371787166,28063,"Jefferson County, Mississippi"
31.5696411088,-89.8230024414,28065,"Jefferson Davis County, Mississippi"
31.6225588057,-89.1687933116,28067,"Jones County, Mississippi"
32.7545579307,-88.6411594239,28069,"Kemper County, Mississippi"
34.356757808,-89.4849192699,28071,"Lafayette County, Mississippi"
31.2060330455,-89.5086725366,28073,"Lamar County, Mississippi"
32.4042861987,-88.662541529,28075,"Lauderdale County, Mississippi"
31.5502158141,-90.1069711692,28077,"Lawrence County, Mississippi"
32.7535170026,-89.5240158465,28079,"Leake County, Mississippi"
34.2898880686,-88.6804161511,28081,"Lee County, Mississippi"
33.5505241007,-90.3010646863,28083,"Leflore County, Mississippi"
31.5323843939,-90.4539712434,28085,"Lincoln County, Mississippi"
33.4729092689,-88.4433134871,28087,"Lowndes County, Mississippi"
32.6347102394,-90.0337143493,28089,"Madison County, Mississippi"
31.2308171304,-89.8224429891,28091,"Marion County, Mississippi"
34.7622655092,-89.503056435,28093,"Marshall County, Mississippi"
33.8922415035,-88.4804669083,28095,"Monroe County, Mississippi"
33.4941024198,-89.6163956957,28097,"Montgomery County, Mississippi"
32.7534965705,-89.1175728285,28099,"Neshoba County, Mississippi"
32.4002323469,-89.1188085187,28101,"Newton County, Mississippi"
33.110112782,-88.5698161858,28103,"Noxubee County, Mississippi"
33.4249531354,-88.8793051624,28105,"Oktibbeha County, Mississippi"
34.3639350883,-89.9505672784,28107,"Panola County, Mississippi"
30.7687104974,-89.5897506359,28109,"Pearl River County, Mississippi"
31.1720242681,-88.9923282776,28111,"Perry County, Mississippi"
31.1749078562,-90.4041605467,28113,"Pike County, Mississippi"
34.2254421511,-89.0374096749,28115,"Pontotoc County, Mississippi"
34.6182874723,-88.5200953248,28117,"Prentiss County, Mississippi"
34.2514096075,-90.2891244706,28119,"Quitman County, Mississippi"
32.2641243634,-89.9457980719,28121,"Rankin County, Mississippi"
32.4063798664,-89.5376379602,28123,"Scott County, Mississippi"
32.8797230696,-90.8132149241,28125,"Sharkey County, Mississippi"
31.9131719625,-89.9194880948,28127,"Simpson County, Mississippi"
32.0176929287,-89.506677525,28129,"Smith County, Mississippi"
30.789951647,-89.1177101979,28131,"Stone County, Mississippi"
33.6023128883,-90.5886186268,28133,"Sunflower County, Mississippi"
33.9504748127,-90.1732642352,28135,"Tallahatchie County, Mississippi"
34.650325267,-89.9447795242,28137,"Tate County, Mississippi"
34.7684002341,-88.9088980221,28139,"Tippah County, Mississippi"
34.7404337635,-88.2393231398,28141,"Tishomingo County, Mississippi"
34.6519495513,-90.3754987097,28143,"Tunica County, Mississippi"
34.4904742327,-89.00385691,28145,"Union County, Mississippi"
31.1484222352,-90.1061367548,28147,"Walthall County, Mississippi"
32.3572296163,-90.852011211,28149,"Warren County, Mississippi"
33.2836981018,-90.9474546435,28151,"Washington County, Mississippi"
31.6407805038,-88.6957976971,28153,"Wayne County, Mississippi"
33.6130681109,-89.2848255762,28155,"Webster County, Mississippi"
31.1610674632,-91.3109179158,28157,"Wilkinson County, Mississippi"
33.0884910001,-89.0344291744,28159,"Winston County, Mississippi"
34.028211563,-89.7076318397,28161,"Yalobusha County, Mississippi"
32.7803142142,-90.3964479749,28163,"Yazoo County, Mississippi"
40.1905621824,-92.6007190462,29001,"Adair County, Missouri"
39.9835107818,-94.8020598986,29003,"Andrew County, Missouri"
40.4308475737,-95.4280934716,29005,"Atchison County, Missouri"
39.2157556331,-91.84158588,29007,"Audrain County, Missouri"
36.7099124483,-93.8290683344,29009,"Barry County, Missouri"
37.5023005833,-94.3471107747,29011,"Barton County, Missouri"
38.2572922743,-94.339996655,29013,"Bates County, Missouri"
38.2948490453,-93.2879464988,29015,"Benton County, Missouri"
37.322190727,-90.0259472067,29017,"Bollinger County, Missouri"
38.9906151273,-92.3096802497,29019,"Boone County, Missouri"
39.6597402335,-94.8059357005,29021,"Buchanan County, Missouri"
36.7164170862,-90.4065563831,29023,"Butler County, Missouri"
39.6557509891,-93.9827993285,29025,"Caldwell County, Missouri"
38.8355168847,-91.92602044,29027,"Callaway County, Missouri"
38.0270346749,-92.7660468541,29029,"Camden County, Missouri"
37.3840412342,-89.6844539015,29031,"Cape Girardeau County, Missouri"
39.4269814843,-93.50517578,29033,"Carroll County, Missouri"
36.941272036,-90.9623104086,29035,"Carter County, Missouri"
38.6469784457,-94.3548163135,29037,"Cass County, Missouri"
37.7238515313,-93.8566135049,29039,"Cedar County, Missouri"
39.5150814814,-92.9626237174,29041,"Chariton County, Missouri"
36.969571697,-93.1888539044,29043,"Christian County, Missouri"
40.4103560325,-91.7383967271,29045,"Clark County, Missouri"
39.3105207472,-94.4208652851,29047,"Clay County, Missouri"
39.6017802193,-94.4045940298,29049,"Clinton County, Missouri"
38.5054099582,-92.2816072464,29051,"Cole County, Missouri"
38.843539656,-92.8101191097,29053,"Cooper County, Missouri"
37.9763768738,-91.3039612785,29055,"Crawford County, Missouri"
37.4320425654,-93.8502883553,29057,"Dade County, Missouri"
37.6804065048,-93.0236553896,29059,"Dallas County, Missouri"
39.9607450135,-93.9854672168,29061,"Daviess County, Missouri"
39.8931762515,-94.404709492,29063,"DeKalb County, Missouri"
37.6066301658,-91.5078826618,29065,"Dent County, Missouri"
36.9325975948,-92.4988057662,29067,"Douglas County, Missouri"
36.2721371509,-90.0909046758,29069,"Dunklin County, Missouri"
38.4111443545,-91.0749938771,29071,"Franklin County, Missouri"
38.4408670947,-91.5079334292,29073,"Gasconade County, Missouri"
40.2121076763,-94.4099168493,29075,"Gentry County, Missouri"
37.258049088,-93.3419904743,29077,"Greene County, Missouri"
40.1139269766,-93.5653381974,29079,"Grundy County, Missouri"
40.3546685834,-93.9920637276,29081,"Harrison County, Missouri"
38.385163021,-93.7927500298,29083,"Henry County, Missouri"
37.9407856984,-93.3207208702,29085,"Hickory County, Missouri"
40.0944306459,-95.215512199,29087,"Holt County, Missouri"
39.1424974869,-92.6962654763,29089,"Howard County, Missouri"
36.7740135585,-91.8865416662,29091,"Howell County, Missouri"
37.555148813,-90.7734903178,29093,"Iron County, Missouri"
39.008475666,-94.3461007818,29095,"Jackson County, Missouri"
37.2035472717,-94.3406053082,29097,"Jasper County, Missouri"
38.2610713047,-90.5376891038,29099,"Jefferson County, Missouri"
38.7440854857,-93.8063674936,29101,"Johnson County, Missouri"
40.1282548929,-92.1480723868,29103,"Knox County, Missouri"
37.6583184627,-92.590351423,29105,"Laclede County, Missouri"
39.0655884308,-93.7855426585,29107,"Lafayette County, Missouri"
37.106351208,-93.8329365623,29109,"Lawrence County, Missouri"
40.0968997041,-91.7221441017,29111,"Lewis County, Missouri"
39.0580193147,-90.9600453966,29113,"Lincoln County, Missouri"
39.8702114727,-93.107175708,29115,"Linn County, Missouri"
39.7821029111,-93.5482792786,29117,"Livingston County, Missouri"
36.628673995,-94.3483586551,29119,"McDonald County, Missouri"
39.8308020875,-92.5646083146,29121,"Macon County, Missouri"
37.4780954961,-90.3450261596,29123,"Madison County, Missouri"
38.1616348912,-91.9248859666,29125,"Maries County, Missouri"
39.8059654072,-91.622348013,29127,"Marion County, Missouri"
40.422331371,-93.5685581671,29129,"Mercer County, Missouri"
38.2145295036,-92.428407769,29131,"Miller County, Missouri"
36.8280984725,-89.2911821185,29133,"Mississippi County, Missouri"
38.6327516348,-92.5830546608,29135,"Moniteau County, Missouri"
39.4954650301,-92.0007352464,29137,"Monroe County, Missouri"
38.941491042,-91.4702087982,29139,"Montgomery County, Missouri"
38.4237395729,-92.8859845551,29141,"Morgan County, Missouri"
36.5946453006,-89.6518318853,29143,"New Madrid County, Missouri"
36.9055088424,-94.3392465045,29145,"Newton County, Missouri"
40.3607737937,-94.8834337255,29147,"Nodaway County, Missouri"
36.6867158656,-91.4032949632,29149,"Oregon County, Missouri"
38.4603650792,-91.8618379561,29151,"Osage County, Missouri"
36.6493218817,-92.4446635679,29153,"Ozark County, Missouri"
36.2114502716,-89.7853789263,29155,"Pemiscot County, Missouri"
37.7071366717,-89.8244110855,29157,"Perry County, Missouri"
38.7282893735,-93.2850962929,29159,"Pettis County, Missouri"
37.8771285847,-91.7923648921,29161,"Phelps County, Missouri"
39.3438351886,-91.1713632054,29163,"Pike County, Missouri"
39.3803407733,-94.7737543641,29165,"Platte County, Missouri"
37.6164789768,-93.4005326616,29167,"Polk County, Missouri"
37.8246250522,-92.2076625405,29169,"Pulaski County, Missouri"
40.478908401,-93.0161267941,29171,"Putnam County, Missouri"
39.5276701706,-91.5220242163,29173,"Ralls County, Missouri"
39.4401679837,-92.4970779756,29175,"Randolph County, Missouri"
39.3524140547,-93.9898835294,29177,"Ray County, Missouri"
37.3623265574,-90.9690828337,29179,"Reynolds County, Missouri"
36.6528169511,-90.8638843452,29181,"Ripley County, Missouri"
38.781907067,-90.6748987038,29183,"St. Charles County, Missouri"
38.0371780097,-93.775975762,29185,"St. Clair County, Missouri"
37.8944043802,-90.1944237,29186,"Ste. Genevieve County, Missouri"
37.8102830478,-90.4722676012,29187,"St. Francois County, Missouri"
38.6406885662,-90.4433975603,29189,"St. Louis County, Missouri"
39.1368391026,-93.2018512461,29195,"Saline County, Missouri"
40.4702708097,-92.5209408738,29197,"Schuyler County, Missouri"
40.4525990445,-92.1470474552,29199,"Scotland County, Missouri"
37.0530460164,-89.5685146862,29201,"Scott County, Missouri"
37.1573917455,-91.4005112879,29203,"Shannon County, Missouri"
39.7977760151,-92.0766157427,29205,"Shelby County, Missouri"
36.8556222182,-89.9443100866,29207,"Stoddard County, Missouri"
36.7470190976,-93.455980976,29209,"Stone County, Missouri"
40.2106416142,-93.1115222539,29211,"Sullivan County, Missouri"
36.6547348009,-93.0411071081,29213,"Taney County, Missouri"
37.31730701,-91.9650546828,29215,"Texas County, Missouri"
37.8505815921,-94.3424415366,29217,"Vernon County, Missouri"
38.7646163949,-91.1606930888,29219,"Warren County, Missouri"
37.9616839121,-90.8774245019,29221,"Washington County, Missouri"
37.1126355072,-90.4614294536,29223,"Wayne County, Missouri"
37.2809053404,-92.8758770268,29225,"Webster County, Missouri"
40.4791367057,-94.4221022302,29227,"Worth County, Missouri"
37.2701399985,-92.4687042487,29229,"Wright County, Missouri"
38.6357242384,-90.245238047,29510,"St. Louis city, Missouri"
45.1326999641,-112.898820016,30001,"Beaverhead County, Montana"
45.423382391,-107.489852538,30003,"Big Horn County, Montana"
